State_ab,City,Zip_Code,Lat,Lon,Mean,Median,Stdev,sum_w
CA,Bieber,96009,41.199312,-120.956779,54602,300000,32641,37.8988659229674
CA,Blocksburg,95514,40.161347,-123.615729,24830,300000,14770,140.0
CA,Alpine,91901,32.842286,-116.756044,91662,79440,65636,2524.28805518864
CA,Watsonville,95076,36.959483,-121.781739,63761,48440,55214,620.110873436596
CA,Aptos,95003,36.991147,-121.892758,96841,82737,67911,1074.37648445388
CA,Arroyo Grande,93420,35.124305,-120.584854,81093,63124,62913,3757.19813633919
CA,Auburn,95603,38.895075,-121.076739,71164,52951,60295,3517.81296487666
CA,Bakersfield,93304,35.321213,-119.018291,71025,56986,57439,62475.4128091042
CA,Eureka,95503,40.765335,-124.178605,41404,31689,37090,805.41557902839
CA,Bella Vista,96008,40.651672,-122.256513,60891,54896,39884,576.705298264188
CA,Benton,93512,37.843606,-118.4899,33158,31129,17722,125.197201304273
CA,Big Bend,96011,41.011615,-121.930444,29530,19739,22104,51.399580435958
CA,Novato,94945,38.109893,-122.518376,132698,127534,71468,131.454210340656
CA,Bolinas,94924,37.917725,-122.709502,100173,76150,73456,241.254868165669
CA,Borrego Springs,92004,33.245398,-116.357035,41547,31028,31083,897.97910321573
CA,Brentwood,94513,37.935905,-121.718547,100640,92772,64768,7494.29857104342
CA,Buellton,93427,34.615497,-120.194237,80327,71623,55978,887.14110789953
CA,Oroville,95965,39.668804,-121.645889,78774,55666,52503,114.293737781304
CA,Calimesa,92399,33.987344,-117.054211,61578,45346,50889,2145.65704358819
CA,Cambria,93428,35.552479,-121.084527,78162,60687,56027,1536.92705566636
CA,Camptonville,95922,39.452065,-121.048719,45763,32833,48119,67.7974994781688
CA,Bodega Bay,94923,38.374452,-123.071859,32499,300000,1826,7.0
CA,Santa Maria,93455,34.837589,-120.531071,72668,300000,26981,16.3323021486756
CA,Cazadero,95421,38.527831,-123.109799,57388,41500,50971,87.5967863255906
CA,Covina,91724,34.102483,-117.856315,74506,62609,49426,1443.87355181399
CA,Chino,91710,33.978037,-117.657719,82439,72505,56415,9358.20926724084
CA,Clayton,94517,37.94032,-121.930076,135724,130312,75495,1170.29716196454
CA,Concord,94520,38.0254,-122.02806,67508,39905,59076,185.8945946976
CA,Colfax,95713,39.093799,-120.953222,62241,48972,48721,597.712204758276
CA,Compton,90220,33.894047,-118.227469,52186,43250,40688,15651.3500894229
CA,West Covina,91723,34.090475,-117.882143,77334,64833,55152,7877.27452465529
CA,Quincy,95971,39.868383,-120.690446,36865,26537,29934,77.6630243601567
CA,Daly City,94014,37.700941,-122.464979,88415,74953,62070,14227.3302497758
CA,Delano,93215,35.763183,-119.26356,46670,35348,36810,8089.25516016155
CA,Mckittrick,93251,35.244025,-119.603833,64762,38492,59874,74.463007671778
CA,Diamond Bar,91765,34.001573,-117.817601,101668,89518,68452,7349.17261461058
CA,Avery,95224,38.294369,-120.270062,94240,36578,87348,93.6311426449058
CA,Dublin,94568,37.716154,-121.896234,126995,119417,72770,5306.96934221662
CA,Hemet,92544,33.730139,-116.940992,59514,47505,48363,3515.86048737486
CA,Compton,90221,33.894834,-118.195587,55412,43934,43685,2192.07472129769
CA,San Luis Obispo,93401,35.210785,-120.605967,70959,300000,30348,42.3315821438778
CA,Elk Creek,95939,39.598678,-122.53232,43059,36830,25925,54.265528402987
CA,El Segundo,90245,33.917145,-118.401554,104661,86968,70772,2594.74876921529
CA,Escondido,92026,33.133053,-117.074043,67119,51007,55767,26781.6819926142
CA,Chowchilla,93610,37.077473,-120.193661,46256,31719,41939,298.785498504384
CA,Sonoma,95476,38.327504,-122.487137,67684,53517,59891,901.689843001601
CA,Flournoy,96029,39.928357,-122.446164,55519,52439,37852,26.965050156285
CA,New Pine Creek,97635,41.863301,-120.159395,39439,25955,35242,58.8642066260862
CA,Merced,95348,37.327717,-120.532114,49495,36846,45243,1455.98253085057
CA,Fresno,93730,36.984012,-119.70806,33535,18417,34551,126.397873699243
CA,Stockton,95215,37.963697,-121.22961,45384,38763,31249,2121.73362506411
CA,Gilroy,95020,37.006407,-121.585321,94368,81326,67204,6759.37216898269
CA,Downieville,95936,39.552354,-120.893102,21163,30485,13700,21.3318666666667
CA,Westley,95387,37.564951,-121.179463,46187,27144,47208,191.627368924625
CA,Greenville,95947,40.133603,-120.945333,40839,27678,41290,411.155847144079
CA,Gustine,95322,37.254514,-120.99487,55566,38476,48129,1306.72296658336
CA,Vacaville,95688,38.420393,-121.950842,107548,88891,67964,331.13872598453
CA,Herald,95638,38.288434,-121.231034,105322,116734,59006,112.820231068841
CA,Highland,92346,34.113473,-117.165729,71416,53373,58733,8813.00614730641
CA,Twentynine Palms,92227,34.273019,-116.414529,38162,26647,35631,1055.96573004793
CA,Huntington Beach,92648,33.690569,-118.00933,98804,83908,69678,31761.5594952181
CA,Ione,95640,38.36003,-120.944343,67768,50637,55281,1656.28948598802
CA,Jamul,91935,32.721063,-116.863036,116516,111367,64817,633.919828978289
CA,Jurupa Valley,92509,34.002591,-117.467612,66953,57050,50640,14036.3835295529
CA,Kenwood,95452,38.415407,-122.538753,102857,300000,73360,244.456188914752
CA,Truckee,96161,39.320997,-120.438309,69749,300000,5981,4.33275551703447
CA,Ladera Ranch,92694,33.549356,-117.641503,146539,137452,77834,2023.40886104408
CA,Chester,96020,40.257771,-121.146958,105321,76530,81893,128.392498509608
CA,Redding,96003,40.903436,-122.399658,54704,31295,54483,182.826616317211
CA,Aguanga,92536,33.518735,-116.812103,64425,69282,33988,131.15732519037
CA,Riverdale,93656,36.437717,-119.932208,53317,300000,65690,55.1990043851812
CA,Lebec,93243,34.844614,-118.899237,50166,300000,41056,281.525847724549
CA,Barstow,92311,34.885199,-117.108326,45143,37956,31897,851.074339590326
CA,Lindsay,93247,36.208216,-119.08968,40664,30077,37152,2561.34802249387
CA,Livingston,95334,37.387281,-120.724943,57266,51069,42662,2075.74165232159
CA,Ben Lomond,95005,37.114619,-122.052768,89332,62885,73377,246.089159987394
CA,Mountain View,94040,37.368538,-122.096629,159081,173800,86393,2823.20221403721
CA,Lost Hills,93249,35.632801,-119.677762,36199,30997,22659,426.693991054185
CA,Mcarthur,96056,41.041995,-121.40524,62566,43080,47125,97.2595660881226
CA,Madera,93637,36.963983,-120.080243,49807,40326,39810,11750.3165919847
CA,Eureka,95502,40.850897,-124.163193,46160,31868,43754,264.726805561
CA,Jackson,95642,38.362045,-120.803077,42633,300000,36037,53.9647596494553
CA,Merced,95340,37.305695,-120.477871,51987,36937,46907,17272.4150859632
CA,Herlong,96113,40.149446,-120.370205,123055,300000,71595,20.330391844826
CA,Lompoc,93438,34.688779,-120.43975,103219,83492,73625,478.171809765134
CA,Monrovia,91016,34.163997,-117.984612,86051,70785,65240,6344.81022422577
CA,Turlock,95313,37.526814,-121.011487,22499,300000,1826,22.0
CA,Twentynine Palms,92277,34.072377,-116.562727,48547,33293,48459,1107.29956537523
CA,Martinez,94553,38.00924,-122.116855,67025,50450,53449,618.979778890032
CA,San Bernardino,92411,34.156059,-117.346405,44076,35849,36861,1830.54404541921
CA,Tulelake,96134,41.888731,-121.360249,22615,16194,19484,94.1578832283228
CA,Norco,92860,33.925519,-117.551958,97832,86829,66154,2962.49032742571
CA,Richmond,94801,37.965271,-122.370668,50937,31359,53493,759.669657511477
CA,Oak Hills,92344,34.389944,-117.403108,87622,71797,59360,1374.54405869257
CA,Oceano,93445,35.101608,-120.608217,54837,48931,42496,1648.56072397654
CA,Weldon,93283,35.67022,-118.227163,39841,29148,43934,221.297243983359
CA,Oroville,95966,39.49362,-121.483755,59644,48663,50221,2043.26963612268
CA,Palm Desert,92260,33.737797,-116.36372,71209,53175,60825,13853.0355248302
CA,Paramount,90723,33.898883,-118.166629,55116,45286,41505,8982.71182402727
CA,Visalia,93292,36.379521,-119.295604,50731,32526,43675,367.021939815174
CA,Petaluma,94952,38.242253,-122.628631,91924,79519,64791,9693.84405156622
CA,King City,93930,36.172072,-121.143013,75691,59995,51853,310.952735595486
CA,Piru,93040,34.406921,-118.799572,57660,48204,35144,355.186836418265
CA,Santa Cruz,95062,36.959718,-121.970036,80553,56067,64635,1481.96209548362
CA,Benicia,94510,38.044542,-122.184944,104845,300000,43214,54.9953598143926
CA,Ramona,92065,33.045619,-116.877515,77090,65343,55980,3391.37583863163
CA,Corning,96021,40.004003,-122.42834,37053,28386,30944,669.979119596773
CA,Redwood Valley,95470,39.268548,-123.202758,84082,83217,38317,202.643494183249
CA,Rio Dell,95562,40.495591,-124.11493,45122,36946,37398,940.829169201731
CA,Somerset,95684,38.545423,-120.747469,48136,300000,10142,96.4970497049705
CA,Lomita,90717,33.780959,-118.325312,143582,140323,84725,834.749838760317
CA,Ross,94957,37.963815,-122.561569,164985,184260,84272,191.383542047683
CA,Sacramento,95816,38.566592,-121.468632,64615,49743,55451,106035.136999912
CA,Upland,91784,34.15642,-117.658705,107195,92987,69393,429.971534072399
CA,San Dimas,91773,34.107957,-117.808529,91998,79150,65569,5521.87784109802
CA,San Juan Capistrano,92675,33.500581,-117.654433,95567,74019,75480,5502.35620907494
CA,San Miguel,93451,35.753406,-120.692396,62308,49204,50986,456.715880130352
CA,Santa Cruz,95060,36.974385,-122.035268,80113,62204,68648,11162.0187285686
CA,San Rafael,94903,38.005569,-122.502811,97244,87362,71020,735.956044290445
CA,Shingletown,96088,40.506094,-121.855665,52956,46292,37775,674.112794177836
CA,Helendale,92342,34.75011,-117.345998,73676,68209,47124,1105.87662259682
CA,South Gate,90280,33.944159,-118.192761,54149,42954,41327,15639.6822032632
CA,Ravendale,96123,40.655664,-120.78626,60188,300000,25016,59.997119807453
CA,Palo Alto,94304,37.427021,-122.167747,89161,48662,87102,1727.77131036844
CA,Porterville,93257,36.143436,-119.061469,33647,25143,27845,650.344957615733
CA,Taft,93268,35.13375,-119.47114,57445,61051,38812,496.766928759181
CA,Shoshone,92384,35.820581,-116.205051,24696,11792,21600,44.1623832783278
CA,Terra Bella,93270,35.956727,-119.032841,38206,29463,31173,476.120801639695
CA,Tracy,95376,37.724597,-121.445538,87689,76613,56410,10926.3478599964
CA,Tulare,93274,36.199366,-119.341921,58613,46466,47634,11625.2201522318
CA,Castaic,91384,34.450423,-118.671784,80845,72205,53806,319.746397064502
CA,Azusa,91702,34.098229,-117.923815,82224,76099,46663,1882.59780513802
CA,Walnut,91789,34.037195,-117.855606,108837,100267,70014,3297.82470351985
CA,Torrance,90502,33.823139,-118.293685,79017,63800,58101,3661.26919096357
CA,Los Angeles,90047,33.941679,-118.301838,39928,26090,41109,7649.30215764366
CA,Wheatland,95692,39.031163,-121.389996,64580,60943,48120,688.800441516865
CA,Willow Creek,95573,40.939131,-123.636666,35613,35444,27148,527.159558418158
CA,Lake Isabella,93240,35.71497,-118.472683,52875,44008,40482,674.481654269862
CA,Kensington,94708,37.9094178,-122.2748795,141291,300000,68996,86.3600384762934
CA,Crescent City,95531,41.7597759,-124.1632913,56914,46533,56987,420.008959869497
CA,Fort Dick,95538,41.8536708,-124.1663143,65856,56124,45132,295.053845455003
CA,South Lake Tahoe,96150,38.9314741,-119.9613705,68506,58839,49757,213.32063425976
CA,Cool,95614,38.8279567,-121.0265108,93996,74907,64056,368.008216134753
CA,El Dorado Hills,95762,38.737015,-121.0874235,135569,300000,76906,346.441344865985
CA,Bakersfield,93307,35.3613217,-118.9879161,26342,18277,23523,1260.37518897735
CA,Cameron Park,95682,38.662649,-121.012167,122054,121110,67834,169.04802608112
CA,Placerville,95667,38.7187575,-120.8955514,94510,86770,61106,319.283991817198
CA,Grizzly Flat,95636,38.6035985,-120.5343814,80195,32216,83414,394.75479414408
CA,Fresno,93721,36.7276566,-119.7762088,31331,27171,20701,282.990106464695
CA,Pasadena,91107,36.743063,-119.7933565,26936,24459,35385,275.486991279271
CA,Fresno,93706,36.717769,-119.8042772,32195,18241,37370,328.847132994902
CA,Bakersfield,93311,35.3307397,-119.1012475,101564,91187,67621,1073.41915114599
CA,Fresno,93725,36.7026849,-119.7410277,37775,32819,26587,409.351904259377
CA,Fresno,93727,36.7433669,-119.6911739,114884,300000,74827,106.32766955823
CA,Fowler,93625,36.6433218,-119.6486262,68012,41889,62116,462.95253784086
CA,Fresno,93728,36.7590503,-119.8157426,37213,23315,33954,270.961648513159
CA,Fresno,93703,36.758343,-119.7810169,46000,21914,57257,245.88983599387
CA,Fresno,93702,36.7540821,-119.7634759,25363,24284,15385,490.890548131959
CA,Clovis,93612,36.7976616,-119.7203949,47015,46353,31916,380.115924793424
CA,Fresno,93704,36.7721367,-119.8108607,100401,75728,79845,121.76030197102
CA,Fresno,93723,36.7715437,-119.9090389,96454,300000,68054,107.828564434638
CA,Fresno,93722,36.7590347,-119.8712115,69094,53793,50023,303.555596454041
CA,Kerman,93630,36.7082365,-120.1192112,45548,29538,56260,275.95596519927
CA,Fresno,93705,36.7971891,-119.8544515,61762,58859,37473,186.692030902446
CA,Fresno,93711,36.8300614,-119.8311865,99856,83707,74372,173.257371317488
CA,Fresno,93720,36.8448123,-119.7744453,51513,43176,40207,856.058976607457
CA,Fresno,93710,36.8301689,-119.7903034,42661,30873,31674,587.657638604219
CA,Fresno,93726,36.786884,-119.7814652,60998,46592,46675,307.193061053992
CA,Clovis,93611,36.8446768,-119.7018656,94931,89265,57837,182.886095963128
CA,Clovis,93619,36.8804748,-119.6918625,105422,300000,65384,34.6634396069206
CA,Sanger,93657,36.7700677,-119.5155966,77299,43682,72082,120.629892577901
CA,Bakersfield,93312,35.3907396,-119.1188797,76076,68372,48584,588.093355549122
CA,Big Creek,93605,37.2235798,-119.0008343,91840,300000,48267,37.5308261097685
CA,Tollhouse,93667,36.9057665,-119.3805297,107612,95137,70383,253.020427278864
CA,Orange Cove,93646,36.6466582,-119.3274871,36480,22455,38995,589.788949138053
CA,Reedley,93654,36.6045254,-119.4393739,82535,73293,57919,99.6569247661454
CA,Parlier,93648,36.5995049,-119.4974354,61962,300000,41359,134.997919916797
CA,Selma,93662,36.5935943,-119.6260162,58925,300000,31751,215.524516272997
CA,Kingsburg,93631,36.5460501,-119.5391568,124958,108583,77787,162.52220566651
CA,Shafter,93263,35.4961858,-119.2738672,39209,31614,34188,1116.12638762095
CA,Raisin City,93652,36.580566,-119.9430164,46691,35472,39922,165.861799971802
CA,Five Points,93624,36.3151691,-120.0929313,29663,23824,25695,485.918472762611
CA,Coalinga,93210,36.1419126,-120.3512512,95126,89163,55806,171.254634603672
CA,Mendota,93640,36.804879,-120.398557,40404,36615,20349,222.325610715151
CA,Firebaugh,93622,36.8586926,-120.5139877,59164,56349,45351,164.755059585369
CA,Hamilton City,95951,39.7212958,-122.0413986,47707,33487,37030,384.089104628352
CA,Eureka,95501,40.7846083,-124.1798708,85033,73345,55356,134.260498834777
CA,Mcfarland,93250,35.6738272,-119.2425798,38045,31876,30117,1684.43825484621
CA,Arcata,95521,40.8875919,-124.0989799,40289,28788,34802,516.346808835641
CA,Trinidad,95570,41.1893421,-124.0324312,59154,49556,47634,180.757987227582
CA,Mckinleyville,95519,40.9375951,-124.11228,48106,45774,35048,600.809673474861
CA,Fortuna,95540,40.6865049,-124.1567492,68994,59364,50520,520.776650465778
CA,Bridgeville,95526,40.5020364,-123.7971626,50321,33497,52524,152.494187115231
CA,Scotia,95565,40.4366309,-124.0525212,64765,47670,54003,275.49200481666
CA,Hoopa,95546,41.0933707,-123.6734419,42756,25831,50343,397.616536398181
CA,Oakland,94606,37.7408161,-122.1621741,69451,63541,51804,745.931879981731
CA,Holtville,92250,32.8156455,-115.3745809,41460,18600,48430,311.259343783525
CA,Imperial,92251,32.8655904,-115.557135,82874,76449,40653,582.09040975389
CA,El Centro,92243,32.7756534,-115.4937384,48768,36209,45607,340.190571927171
CA,Calexico,92231,32.6773523,-115.4776599,70533,60898,59628,503.980040219349
CA,Seeley,92273,32.9323193,-115.9218139,40304,23203,36262,63.7978630783746
CA,Bishop,93514,37.3448147,-118.2425035,91625,84997,51673,172.582252627777
CA,Independence,93526,36.9449466,-117.9007638,64939,49379,48774,432.250369068548
CA,California City,93505,35.1220493,-118.007949,57977,42618,46357,1052.79672032982
CA,Bakersfield,93308,35.4294346,-119.0170134,47383,35774,37755,500.450556899868
CA,Bakersfield,93305,35.3976684,-118.9953155,61146,52669,41103,155.427362116303
CA,Bakersfield,93306,35.4050159,-118.9631285,64345,59094,49723,269.810772761761
CA,Tehachapi,93561,34.9750866,-118.5949931,79435,59562,61561,1122.77666791824
CA,Bakersfield,93309,35.3601532,-119.0495029,56318,42479,45251,672.808302470187
CA,Bakersfield,93313,35.3070654,-119.0655635,54283,46767,42202,191.824276435383
CA,Hanford,93232,36.3547616,-119.6700353,94000,88623,63042,1148.98216533395
CA,Wasco,93280,35.5738555,-119.3509151,47921,38561,37204,348.325999817299
CA,Ridgecrest,93555,35.7285096,-117.7286899,37548,24519,37365,355.387584163962
CA,Inyokern,93527,35.5741443,-117.8252583,125966,300000,61427,285.645405867114
CA,Hanford,93230,36.2324904,-119.6239493,69956,53963,59129,510.213206538927
CA,Rosamond,93560,34.8581565,-118.1560393,57877,65076,33164,204.221263155362
CA,Arvin,93203,35.2236273,-118.83337,53026,38595,42781,356.154241561361
CA,Lamont,93241,35.2692638,-118.9121193,39654,35419,30571,384.385340052999
CA,Lemoore,93245,36.2769538,-119.769357,84148,74559,57437,320.813919280066
CA,Lakeport,95453,39.0412302,-122.9626051,50565,42087,42791,1071.99416736994
CA,Corcoran,93212,36.1028669,-119.5738328,48378,31305,48265,162.988842544278
CA,Avenal,93204,35.9068415,-120.0768232,0,0,0,0.0
CA,Clearlake Oaks,95423,39.081678,-122.575206,46508,28512,41103,307.517044411196
CA,Clearlake,95422,38.9565553,-122.6403151,41732,27038,39758,339.48898982059
CA,Kelseyville,95451,38.8709539,-122.7736029,61941,55303,46728,337.847809489169
CA,Susanville,96130,40.4793843,-120.5970677,60707,59703,41137,186.124489388751
CA,Janesville,96114,40.276377,-120.5441538,72742,56751,57194,152.454760094109
CA,Tujunga,91042,34.2529724,-118.2907309,54587,33774,57058,653.379822132649
CA,Sunland,91040,34.2633843,-118.3073883,87333,300000,59325,119.192983201913
CA,Pacoima,91331,34.2731497,-118.39857,41633,36414,32712,477.013635250911
CA,Lake View Terrace,91342,34.2912875,-118.3931176,45536,33087,39032,235.361796915566
CA,Litchfield,96117,40.4420615,-120.3653805,78642,62733,63866,253.81660812024
CA,Granada Hills,91344,34.2863224,-118.5070136,116540,300000,60870,123.555892700464
CA,Northridge,91326,34.2864236,-118.5400017,149418,300000,62264,114.95329001298
CA,Mission Hills,91345,34.2593157,-118.4495333,84635,300000,45923,98.7587528668993
CA,Sun Valley,91352,34.2161873,-118.3453981,88535,76038,63715,567.098162630969
CA,Northridge,91325,34.2539511,-118.5128425,80195,61041,64552,631.995935783953
CA,Chatsworth,91311,34.2606831,-118.6024264,100529,90602,72354,157.821318508101
CA,West Hills,91304,34.2269621,-118.6012202,51265,41995,36970,806.334479148953
CA,Canoga Park,91306,34.222799,-118.5807188,97358,300000,61605,204.21924453258
CA,Northridge,91324,34.2441108,-118.5382749,54102,44427,46815,720.108088191377
CA,North Hills,91343,34.2429089,-118.478874,97155,85144,54813,163.553137670978
CA,Berkeley,94707,37.8911093,-122.2813663,137482,133190,83451,519.560410387007
CA,Panorama City,91402,34.2371667,-118.4458757,55225,42001,50746,533.851607507821
CA,North Hollywood,91605,34.2114871,-118.3928771,37221,26032,32621,658.179309588061
CA,North Hollywood,91606,34.192132,-118.365403,54091,41169,48898,610.717385826171
CA,Van Nuys,91401,34.1774941,-118.4162038,70527,54369,56721,448.349753886355
CA,North Hollywood,91601,34.1757824,-118.3833988,61317,40557,58940,374.789783274717
CA,Sherman Oaks,91423,34.1631392,-118.4158172,99722,78022,73680,291.453068739263
CA,Van Nuys,91405,34.2043745,-118.4301703,47449,37333,52037,806.765846238198
CA,Van Nuys,91406,34.2102531,-118.4782103,51373,39263,49925,224.827824826586
CA,Van Nuys,91411,34.1921963,-118.4576889,27295,22542,18868,297.655355319238
CA,Downey,90242,34.3263984,-118.4796123,84852,76695,54083,734.157000118399
CA,Reseda,91335,34.2145917,-118.5316957,66388,59693,51488,529.511163477319
CA,Canoga Park,91303,34.2026924,-118.5855271,93502,88567,55234,118.39312956761
CA,West Hills,91307,34.1886366,-118.6174552,96502,89857,64295,210.051703604315
CA,Woodland Hills,91367,34.1661153,-118.6402345,102316,72104,81025,334.046590674206
CA,Woodland Hills,91364,34.1634518,-118.5976927,74477,44205,68752,250.121740428208
CA,Encino,91316,34.1754113,-118.5117181,99682,300000,61115,142.257585724229
CA,Encino,91436,34.1365758,-118.5094499,179773,183484,65778,36.726918082648
CA,Sherman Oaks,91403,34.1519021,-118.4426826,80261,63169,55187,411.27744497839
CA,North Hollywood,91602,34.152183,-118.3866139,108180,76209,89557,247.623525607008
CA,Studio City,91604,34.1476412,-118.40678,81124,300000,63247,239.256566140989
CA,Los Angeles,90041,34.145267,-118.2043861,88527,59408,72801,206.020315664328
CA,Los Angeles,90042,34.1199723,-118.1892861,56625,49009,36976,270.156336772647
CA,Los Angeles,90017,34.1001272,-118.2316884,62747,58114,45685,127.324812960949
CA,Los Angeles,90065,34.1284623,-118.2299818,104280,300000,76321,108.195253757941
CA,Los Angeles,90027,34.1124175,-118.2723964,71281,64881,51608,253.58398332998
CA,Los Angeles,90028,34.1112674,-118.3093146,123433,83180,91067,173.488443686273
CA,Los Angeles,90068,34.1319418,-118.3345237,122950,98295,80867,138.651642606009
CA,Los Angeles,90046,34.1025152,-118.3477123,71807,46897,67637,859.261799950546
CA,Los Angeles,90029,34.0929287,-118.304794,41109,28797,35748,736.248646303712
CA,Los Angeles,90038,34.0852963,-118.3277048,58909,47458,47588,266.055514603926
CA,Los Angeles,90004,34.079869,-118.3068568,54342,37893,50701,526.487680560297
CA,Los Angeles,90026,34.0916923,-118.2740531,109647,93139,74336,200.150116204954
CA,Los Angeles,90031,34.0700703,-118.1996896,44460,27902,38095,455.451180725339
CA,Los Angeles,90032,34.0948043,-118.1743332,57923,38818,59471,160.12288599229
CA,Los Angeles,90033,34.059079,-118.1964766,44291,300000,49724,126.032676611661
CA,Los Angeles,90063,34.0449856,-118.1955756,56085,52980,32873,153.690633178906
CA,Los Angeles,90015,34.0175004,-118.1974975,44018,36291,32404,360.455645922668
CA,Los Angeles,90012,34.0592851,-118.2395097,29299,15956,32360,767.466311883168
CA,Los Angeles,90057,34.0637659,-118.2691298,34427,22191,31842,499.327991652806
CA,Los Angeles,90005,34.0529626,-118.2819584,33119,25809,27321,301.456278368676
CA,Los Angeles,90010,34.0653405,-118.3184531,84137,300000,68849,162.72743012249
CA,Los Angeles,90019,34.0494541,-118.3215149,64429,42865,64289,438.855677298082
CA,Los Angeles,90006,34.0508743,-118.2978915,38042,28469,28015,469.258521432252
CA,Los Angeles,90036,34.0748535,-118.348502,91974,300000,88846,214.696283220149
CA,Beverly Hills,90211,34.0729596,-118.3800926,83580,60080,67837,369.112048026659
CA,Los Angeles,90016,34.0427467,-118.3548171,36483,25753,30278,433.983797440849
CA,Los Angeles,90056,34.0326941,-118.3230172,53101,38801,48642,577.747848715524
CA,Los Angeles,90007,34.0435736,-118.2960214,43755,38672,29764,511.488387216098
CA,Los Angeles,90018,34.0384431,-118.3090474,59581,37415,61162,229.885517111301
CA,Los Angeles,90011,34.0218419,-118.2570623,37079,25700,36339,296.059569128755
CA,Los Angeles,90058,33.9992469,-118.2432565,27709,21613,21297,131.492549841653
CA,Los Angeles,90062,34.0145548,-118.3129995,45723,38509,30133,340.92403464811
CA,Los Angeles,90037,34.0073136,-118.2893576,27902,24958,24136,307.412940368598
CA,Los Angeles,90044,33.9920924,-118.2979984,40317,27101,39650,538.98847662136
CA,Los Angeles,90008,34.0120868,-118.3214867,80654,70607,58446,118.627739859549
CA,Los Angeles,90043,33.9872213,-118.3276852,50194,31219,54157,160.362216910366
CA,Inglewood,90305,33.963628,-118.3111989,49347,34421,43056,364.681809348529
CA,Los Angeles,90001,33.9729857,-118.2628927,36769,30036,30034,254.659090939262
CA,Los Angeles,90003,33.966092,-118.2752631,37936,34678,22619,415.588172305013
CA,Los Angeles,90002,33.9470153,-118.2593919,26815,18303,26115,293.855487863956
CA,Los Angeles,90059,33.932376,-118.2502423,23353,12486,22296,264.844974397852
CA,Los Angeles,90077,34.108023,-118.4569642,166585,300000,100375,69.3308586359454
CA,Los Angeles,90049,34.0918093,-118.508627,189728,300000,84217,73.6256548331889
CA,Pacific Palisades,90272,34.040805,-118.5419865,130804,118247,89940,530.701152331712
CA,Los Angeles,90024,34.0668275,-118.4364091,103013,91139,88538,319.067006850816
CA,Los Angeles,90025,34.0525736,-118.4245499,112470,97041,75401,411.863266600641
CA,Los Angeles,90035,34.0387217,-118.4441579,86354,77492,65205,487.808210205129
CA,Los Angeles,90034,34.043325,-118.404305,201716,300000,73283,36.9628192329642
CA,Los Angeles,90064,34.0444598,-118.4122005,165946,300000,84616,78.6952556755205
CA,Los Angeles,90066,34.0166822,-118.4382414,139846,116703,80004,55.7609473673272
CA,Venice,90291,34.0034847,-118.4597995,127023,117987,84722,135.69122806865
CA,Marina Del Rey,90292,33.9832035,-118.4661393,129091,94781,80712,156.417921841356
CA,Berkeley,94703,37.8573281,-122.2842016,77898,64599,63168,856.424951600231
CA,Los Angeles,90230,33.9979789,-118.4112469,59922,300000,45972,308.993144047158
CA,Los Angeles,90045,33.9668881,-118.4095017,113745,107969,72873,135.653732834205
CA,Playa Del Rey,90293,33.9558339,-118.4365003,86856,71650,63594,590.087278574824
CA,Gardena,90247,33.8771395,-118.286709,50930,35604,49082,126.928789643834
CA,Torrance,90501,33.8308864,-118.30513,71178,63008,50150,309.513678745164
CA,Harbor City,90710,33.7926172,-118.3043149,64107,48109,47672,486.085286783772
CA,Wilmington,90744,33.7957797,-118.2475763,48199,31470,44589,112.227714989069
CA,San Pedro,90731,33.7410279,-118.2837798,68164,55848,62112,290.247458150934
CA,San Pedro,90732,33.7208388,-118.3228117,125147,300000,65068,68.6595868225649
CA,La Crescenta,91214,34.2283768,-118.2386852,103793,86533,66206,208.247095272502
CA,Glendale,91208,34.2083519,-118.2370026,99322,300000,55854,103.261090862725
CA,Glendale,91202,34.1812932,-118.2602776,125819,113952,88892,415.973632551742
CA,Glendale,91206,34.1622943,-118.2471275,71613,300000,51090,480.915361957827
CA,Glendale,91201,34.1752478,-118.2869319,78126,70374,55194,180.487951783432
CA,Glendale,91203,34.1492141,-118.2597025,65155,34908,67101,503.852492402166
CA,Glendale,91205,34.1488475,-118.2387735,56184,39268,51757,1074.43555397221
CA,Glendale,91204,34.1446832,-118.2632444,86436,55120,74657,528.84854727098
CA,Burbank,91501,34.1865849,-118.2959084,95896,76779,73577,273.378738486311
CA,Burbank,91504,34.1946547,-118.3394509,71316,63799,48326,142.29000986798
CA,Burbank,91502,34.1811419,-118.3067629,47878,35793,34513,791.24494520259
CA,Pasadena,91101,34.1813842,-118.3309896,67988,43316,55087,259.259807973726
CA,Burbank,91505,34.1856903,-118.3546268,93727,300000,56108,150.555679220362
CA,Burbank,91506,34.1617644,-118.3200887,92215,300000,73321,204.492140093137
CA,San Fernando,91340,34.2897466,-118.4345092,69910,66670,43702,129.989232331288
CA,Glendora,91741,34.1611292,-117.8641751,135047,300000,79740,223.718336755635
CA,Glendora,91740,34.1234558,-117.8541745,69703,300000,66021,185.860345470554
CA,Pomona,91767,34.1001078,-117.741743,72283,67063,52393,521.209394233562
CA,Claremont,91711,34.087518,-117.7249199,80489,75939,57703,317.683692353967
CA,Pomona,91768,34.0617068,-117.7658059,39659,30306,33027,398.723909456775
CA,Pomona,91766,34.0483607,-117.7322415,50018,47010,29533,402.317532571052
CA,Baldwin Park,91706,34.0707544,-117.9850286,52026,42556,42691,401.382171636746
CA,West Covina,91790,34.0764659,-117.9439945,72493,300000,40579,251.12003534657
CA,Covina,91722,34.0921972,-117.9121014,72862,60012,50476,366.61725154737
CA,La Puente,91746,34.0595763,-117.979529,72821,66800,38164,261.220900664053
CA,La Puente,91744,34.0335496,-117.9597817,86036,85900,54523,131.825583304546
CA,West Covina,91791,34.0455304,-117.9154705,100851,104414,51221,291.909104817892
CA,Rowland Heights,91748,33.994422,-117.8795586,70175,56154,50688,352.45495611852
CA,Hacienda Heights,91745,34.0113976,-117.9679362,65473,57321,46016,462.114146055748
CA,Duarte,91010,34.1722232,-117.9422558,105358,108251,46966,83.1237969139095
CA,Tarzana,91356,34.1767231,-118.5383656,53763,44404,44441,1231.74086042355
CA,Sierra Madre,91024,34.162053,-118.052919,107162,90293,76950,327.085362006083
CA,Arcadia,91007,34.1422654,-118.0608911,75544,52547,62299,571.577172493897
CA,Temple City,91780,34.0981939,-118.0327899,35100,19836,41850,385.786866833047
CA,El Monte,91731,34.0865238,-118.0462778,76522,55648,57783,265.688509627397
CA,El Monte,91732,34.0966686,-118.0058397,68133,57351,58636,342.946434176136
CA,Rosemead,91770,34.0786952,-118.0599559,84718,66462,69792,97.7627467339907
CA,South El Monte,91733,34.0468938,-118.0588991,46816,33670,34545,320.892285961292
CA,Altadena,91001,34.2022974,-118.1374923,100351,300000,58212,186.819294965687
CA,La Canada,91011,34.2062406,-118.1950104,176514,300000,68029,35.4941698177906
CA,Pasadena,91103,34.174165,-118.1372082,55463,44804,46595,270.285300376144
CA,Pasadena,91104,34.1633406,-118.1483611,47208,300000,59419,121.032388613742
CA,Pasadena,91106,34.1549625,-118.1270033,50706,35231,41165,564.275263176767
CA,San Marino,91108,34.1202462,-118.1222337,178029,204164,78730,33.8605012360494
CA,San Gabriel,91775,34.1089102,-118.0972871,127983,300000,65760,78.1592854772201
CA,Alhambra,91801,34.1039997,-118.1321698,121801,104023,86965,130.924087794266
CA,South Pasadena,91030,34.1193401,-118.1551292,74402,55405,58793,754.536319984113
CA,Alhambra,91803,34.0820627,-118.1526495,78622,58614,56089,110.161435079993
CA,San Gabriel,91776,34.099157,-118.1069461,57232,47607,42083,462.917598716727
CA,Monterey Park,91754,34.0488369,-118.1482676,83332,60854,66733,320.515926745964
CA,Monterey Park,91755,34.0589573,-118.1124273,44073,27978,50932,297.819921284122
CA,Whittier,90605,33.9613945,-117.9940889,153156,300000,78923,86.3940349589806
CA,Pico Rivera,90660,34.0139543,-118.0739967,75490,73063,43795,245.586781092189
CA,Whittier,90601,33.998845,-118.0628302,88766,78658,62006,436.238228834696
CA,Whittier,90602,33.9760214,-118.008555,70285,48157,55732,460.321124323461
CA,Whittier,90606,33.9775294,-118.0729448,73814,58849,55841,173.892121809094
CA,Santa Fe Springs,90670,33.9548068,-118.0716366,76128,60661,43733,188.923054576238
CA,Whittier,90604,33.9324918,-118.0266537,68760,62108,59694,117.794407719767
CA,La Mirada,90638,33.9113984,-117.9989996,116058,96936,79934,312.279624640521
CA,Los Angeles,90039,34.1207814,-118.2647639,87637,300000,54816,623.201041541836
CA,Montebello,90640,34.020019,-118.1126395,64591,49628,52342,244.190710506755
CA,Los Angeles,90022,34.0278115,-118.1479458,47462,44387,24598,238.623674749741
CA,Los Angeles,90023,34.016901,-118.182724,31064,19354,30982,258.994301920674
CA,Huntington Park,90255,33.9832062,-118.2208725,35969,27107,25779,498.327462025737
CA,Maywood,90270,33.9927923,-118.2024051,28800,21049,26824,282.191027463556
CA,Bell,90201,33.9771928,-118.1965167,52302,56738,34829,187.289699369926
CA,Alameda,94501,37.7778323,-122.2835979,57071,43007,50318,1165.27070887349
CA,Lynwood,90262,33.931052,-118.1901733,42656,41431,27962,218.06119912629
CA,Compton,90222,33.9243583,-118.2341162,38523,28460,36637,605.814814700276
CA,Los Angeles,90061,33.9194635,-118.2717325,51540,44268,33811,185.591443663733
CA,Compton,90227,33.8996115,-118.2262997,51253,44426,39675,492.381502491399
CA,Carson,90746,33.881033,-118.2539533,54426,48895,41206,239.054253823089
CA,Carson,90747,33.8656664,-118.25076,77615,66090,53106,418.346016483197
CA,Carson,90745,33.8135657,-118.2696681,73556,57020,58825,125.023020975269
CA,Long Beach,90810,33.830434,-118.2159632,92074,94556,45388,68.6935839119201
CA,Norwalk,90650,33.9278762,-118.0841626,79170,300000,46580,196.621995253201
CA,Downey,90240,33.9502684,-118.1063383,125282,300000,78348,95.6270994334835
CA,Downey,90241,33.95127,-118.1433556,63954,53192,41428,268.856183942797
CA,Bellflower,90706,33.9049648,-118.1205611,86014,300000,51952,104.49477507382
CA,Cerritos,90703,33.8767524,-118.0551677,106789,96089,69002,282.314136750194
CA,Artesia,90701,33.8693945,-118.0806903,75344,61821,61215,290.885859499327
CA,Hawaiian Gardens,90716,33.8200771,-118.0728449,115804,96094,80111,177.513532021996
CA,Long Beach,90805,33.8794113,-118.1785185,63240,52217,48936,174.81981344518
CA,Lakewood,90713,33.8532314,-118.1210795,89235,75940,67928,128.025752350817
CA,Long Beach,90808,33.8395918,-118.1336246,112915,300000,81184,135.725342793915
CA,Lakewood,90712,33.8351031,-118.1600342,109386,99591,61244,118.390477625031
CA,Long Beach,90807,33.8481676,-118.1705772,75146,77305,43718,222.115855712505
CA,Long Beach,90813,33.793484,-118.1915444,37187,24828,35563,411.355873250291
CA,Long Beach,90806,33.8006191,-118.1853182,52087,37827,44889,494.183559400382
CA,Signal Hill,90755,33.8016982,-118.1691428,48159,36506,43395,430.279777412636
CA,Long Beach,90815,33.7994363,-118.118082,77323,63316,42598,128.156891723465
CA,Long Beach,90804,33.7861934,-118.1534873,56802,39139,45798,565.883322542877
CA,Long Beach,90802,33.778962,-118.197207,41231,28386,39205,566.647111256702
CA,Long Beach,90814,33.7715757,-118.1642818,46423,47193,41724,217.279293825439
CA,Long Beach,90803,33.7556821,-118.1387992,109531,104705,76391,195.719740115232
CA,Avalon,90704,33.3421607,-118.3305291,76075,72859,47857,106.426777111526
CA,Inglewood,90303,33.9280513,-118.3307284,91096,80697,58117,137.255336386565
CA,Inglewood,90302,33.9720411,-118.3522568,34386,32606,21485,367.728682371278
CA,Inglewood,90301,33.9565607,-118.3475932,38939,32736,29338,688.348755040577
CA,Lennox,90304,33.9400822,-118.3635824,48218,36108,40359,490.58249530363
CA,Hawthorne,90250,33.9204031,-118.3581593,49456,40862,37525,453.306943510666
CA,Gardena,90249,33.9112721,-118.3195843,55800,52730,34950,321.07890434433
CA,Gardena,90248,33.8701465,-118.3023094,87607,300000,57683,103.726453999972
CA,Torrance,90504,33.8829956,-118.3393815,91949,300000,63391,253.555735712296
CA,Lawndale,90260,33.8985392,-118.3480963,55420,45831,36998,241.224970132095
CA,Manhattan Beach,90266,33.8984626,-118.4050812,164396,206024,92189,112.991715318531
CA,Redondo Beach,90278,33.8873629,-118.3699718,109016,300000,58288,99.0280624848994
CA,Torrance,90503,33.8530265,-118.3702822,114126,300000,62960,71.4621797973638
CA,Torrance,90505,33.8209956,-118.367527,125786,300000,66719,127.122942723776
CA,Palos Verdes Estates,90274,33.8001638,-118.3869835,150223,157006,81326,58.4922847176677
CA,Rancho Palos Verdes,90275,33.7671014,-118.3748916,122003,105522,80507,414.435866169449
CA,Los Angeles,90048,34.0812987,-118.3811478,78427,62610,66805,492.267822623122
CA,Beverly Hills,90210,34.0892642,-118.4021007,167779,208338,93754,100.256885109794
CA,Beverly Hills,90212,34.0620828,-118.3944002,96430,89224,68380,390.494819220763
CA,Santa Monica,90403,34.0412036,-118.4943488,157088,156861,84443,87.75912312672
CA,Santa Monica,90405,34.0188907,-118.4789709,70151,46977,59443,287.924492952953
CA,Calabasas,91302,34.1150626,-118.685427,151185,300000,80376,73.1612651735396
CA,Westlake Village,91361,34.1448378,-118.8170419,110295,97315,84170,315.044068962756
CA,Agoura,91301,34.1211089,-118.7391728,140704,300000,58244,78.6240441157871
CA,Topanga,90290,34.0516505,-118.6049503,136693,300000,73979,149.053131236041
CA,Lancaster,93535,34.7083865,-117.956249,53182,38578,53018,242.949615974714
CA,Lancaster,93534,34.6819687,-118.14081,65709,56932,51199,261.816185541434
CA,Lancaster,93536,34.6966423,-118.1748108,68162,57343,43746,131.024912377219
CA,Palmdale,93551,34.615092,-118.1350954,76484,62035,54730,446.012431542864
CA,Palmdale,93550,34.5834907,-118.1256195,45383,35898,37879,330.953957942326
CA,Canyon Country,91351,34.4620693,-118.395844,88448,300000,44857,193.384653208844
CA,Agua Dulce,91390,34.5455872,-118.4200954,91975,58769,86857,42.862799046923
CA,Saugus,91350,34.4474408,-118.5295759,84492,300000,48574,305.253303868131
CA,Castro Valley,94546,37.7060949,-122.0822257,110268,300000,62532,454.668103473992
CA,Canyon Country,91387,34.4180484,-118.4333787,79203,73376,46596,380.772291374934
CA,Valencia,91355,34.4524038,-118.5384531,110430,100166,62717,171.718082390817
CA,Newhall,91321,34.3715616,-118.5513235,120161,300000,65393,84.260381082439
CA,North Fork,93643,37.3965946,-119.3767852,48669,25394,59364,232.58708142578
CA,Oakhurst,93644,37.3197594,-119.6159177,80540,300000,46079,111.327211246727
CA,Madera,93638,36.962996,-119.9602082,78925,69478,55453,322.550306448539
CA,Novato,94949,38.0792991,-122.5643083,105244,103640,63777,233.91984938556
CA,San Rafael,94901,37.9815305,-122.5305318,71791,62928,58934,276.913702540561
CA,San Anselmo,94960,37.9762769,-122.5941051,115908,95545,77809,300.582270571467
CA,Larkspur,94939,37.9456796,-122.5282641,82393,60197,68850,417.784571095055
CA,Corte Madera,94925,37.9240154,-122.5231563,153399,300000,79413,133.056371678106
CA,Tiburon,94920,37.8713791,-122.4672873,158404,300000,88766,93.5272524961636
CA,Mill Valley,94941,37.899975,-122.5225708,103111,76513,82645,460.773917714273
CA,Sausalito,94965,37.856415,-122.478445,119885,122444,73952,351.744979928408
CA,Catheys Valley,95306,37.3724477,-120.0838974,69566,54789,64330,327.871132886483
CA,Yosemite,95389,37.6979738,-119.5740176,80304,67869,57980,213.623462417695
CA,Fort Bragg,95437,39.455171,-123.638408,63791,300000,53266,183.562709118358
CA,Willits,95490,39.4223312,-123.3671818,32119,30407,21041,399.958374780628
CA,Ukiah,95482,39.2595876,-123.3809556,67929,300000,47039,80.4308427564111
CA,Point Arena,95468,38.8846355,-123.5511675,52057,39048,48211,379.020279457888
CA,Merced,95341,37.4002299,-120.6908186,45169,300000,30657,169.594883609326
CA,Hilmar,95324,37.3998708,-120.8953613,90493,300000,58588,162.22406351715
CA,Atwater,95301,37.3574501,-120.6497474,50484,43488,37979,596.677917704309
CA,Merced,95344,37.2876583,-120.445312,41004,32873,32392,857.595849719313
CA,Los Banos,93635,37.049609,-120.8635648,54495,42798,48414,361.622135045268
CA,Dos Palos,93620,36.9746245,-120.6220705,59484,45240,42567,497.215097351538
CA,Canby,96015,41.5108055,-121.2486404,40613,33481,31724,300.118547247359
CA,Mammoth Lakes,93546,37.6397682,-118.9849293,80754,300000,53004,98.5624635122702
CA,Salinas,93906,36.7132772,-121.6495279,80377,300000,50793,266.3835386996
CA,Salinas,93905,36.6878097,-121.609157,37606,30398,29741,265.457080753155
CA,Salinas,93901,36.6701186,-121.6776094,86755,79351,56555,255.786352164724
CA,Castroville,95012,36.764838,-121.7533738,50156,40931,35889,258.590089180482
CA,Salinas,93908,36.5436798,-121.6316313,132555,110955,80992,251.249168536564
CA,Carmel Valley,93924,36.3913637,-121.6806215,73412,78216,34256,208.150911302233
CA,Greenfield,93927,36.3177202,-121.244738,48881,46011,26904,218.159580797854
CA,Carmel,93922,36.4997312,-121.871267,103464,81869,80585,446.274052186913
CA,Pacific Grove,93950,36.5852187,-121.9452821,114133,111009,74144,121.389368819861
CA,Monterey,93940,36.6021019,-121.8947338,54390,38489,50629,280.417926777402
CA,Seaside,93955,36.6034308,-121.8319795,35070,20035,37384,330.490766213315
CA,Marina,93933,36.7093536,-121.771688,54805,45581,41072,451.116896506117
CA,Napa,94559,38.2947649,-122.2877733,43320,45962,36548,298.187979326316
CA,Napa,94558,38.3170915,-122.2915765,84259,300000,66267,157.192646288554
CA,Vallejo,94589,38.1608327,-122.2596823,109285,300000,65821,269.383328731118
CA,Yountville,94599,38.3955265,-122.3669355,100464,68313,80091,322.285591432305
CA,Angwin,94508,38.5549366,-122.4312603,79252,66968,49031,183.955259198089
CA,Calistoga,94515,38.5814083,-122.5826961,88175,300000,74011,156.260662826535
CA,Grass Valley,95949,39.0603644,-121.0424118,75233,300000,49818,108.695449719911
CA,San Leandro,94579,37.7167162,-122.1661481,72350,60725,47355,818.333515003376
CA,Penn Valley,95946,39.2091585,-121.2138243,77092,54433,61597,464.551595429586
CA,Grass Valley,95945,39.2116634,-121.0816502,50223,38956,41570,317.6255973017
CA,Alta,95701,39.2295298,-120.8825536,62423,46989,51315,470.587553343113
CA,Nevada City,95959,39.2508975,-121.045279,84697,73012,57239,472.940890671602
CA,La Habra,90631,33.9427646,-117.963138,80902,72539,45409,191.321240222889
CA,La Habra,90633,33.9209014,-117.9511671,76343,77420,39260,281.036590584395
CA,Oakland,94607,37.8063521,-122.2963073,55769,39174,53094,590.747397959185
CA,Brea,92821,33.9153582,-117.9082621,69752,64980,50794,237.255064720305
CA,Fullerton,92835,33.9022276,-117.9223002,128201,300000,75641,170.322026895713
CA,Fullerton,92833,33.8630156,-117.9720501,41985,300000,25208,396.925712298835
CA,Fullerton,92832,33.8732653,-117.9360784,94853,92860,52122,129.090743170847
CA,Fullerton,92831,33.8715955,-117.9057059,79796,300000,54844,108.595201500347
CA,Placentia,92870,33.9025381,-117.8612771,118643,300000,69504,134.788908141756
CA,Placentia,92780,33.8654909,-117.8706075,46109,28108,54427,283.95410927533
CA,Yorba Linda,92887,33.8831822,-117.7056802,122484,300000,61753,132.053254418182
CA,Anaheim,92807,33.8523274,-117.8076536,105938,300000,67176,126.157003351336
CA,Orange,92869,33.7979555,-117.8074249,112291,99655,69506,186.218603876308
CA,Anaheim,92808,33.8549585,-117.7543976,165411,300000,68497,73.5258904644186
CA,Trabuco Canyon,92679,33.7524903,-117.6124151,93837,300000,66550,216.191809629643
CA,Mission Viejo,92691,33.6091503,-117.6853284,105999,102257,65245,213.450264425032
CA,San Clemente,92673,33.510035,-117.5565845,154769,164449,85245,671.885341364803
CA,Rancho Santa Margarita,92688,33.6394475,-117.629962,181956,200345,74052,175.41370229769
CA,Mission Viejo,92692,33.5941166,-117.6450407,167360,300000,67203,42.4934708686787
CA,San Clemente,92672,33.4320693,-117.6217862,57821,45944,45981,621.004920147022
CA,Capistrano Beach,92624,33.4516513,-117.6512801,94997,76631,66374,351.71336292868
CA,Laguna Niguel,92677,33.5378721,-117.679732,93402,77064,75089,244.787640831971
CA,Aliso Viejo,92656,33.5707126,-117.7106408,72942,68064,51554,266.285170259279
CA,Lake Forest,92630,33.649152,-117.7046344,79054,300000,74215,235.162110503174
CA,Irvine,92620,33.6920021,-117.7546973,68649,66137,55052,298.548032162684
CA,Irvine,92604,33.6847725,-117.7990448,67308,17230,79359,349.113990391207
CA,Irvine,92614,33.6693319,-117.7987237,116522,300000,54193,170.816800813964
CA,Irvine,92618,33.672529,-117.7750233,159907,300000,59467,115.18428222213
CA,Irvine,92606,33.6849393,-117.8221596,69568,57940,53159,218.688673020492
CA,Laguna Beach,92651,33.5427708,-117.7839464,102205,96360,66392,130.491137024231
CA,Irvine,92612,33.662224,-117.8144114,43156,27630,36902,341.515087337684
CA,Laguna Hills,92653,33.6166767,-117.7248835,55115,45519,45597,435.611956572526
CA,Irvine,92603,33.6401283,-117.8123266,160443,300000,86666,56.5285254024284
CA,Costa Mesa,92626,33.5950883,-117.829038,168957,300000,79604,134.425190547622
CA,Santa Ana,92704,33.6937428,-117.9036273,121173,113437,80521,293.304877657341
CA,Santa Ana,92707,33.7015157,-117.8725713,86494,73058,61340,320.884484167495
CA,Santa Ana,92701,33.7481442,-117.8492851,47897,300000,35543,151.364132952475
CA,Santa Ana,92703,33.7435528,-117.889227,76750,59646,60092,163.257808345703
CA,Santa Ana,92706,33.755664,-117.8797292,55783,40846,46986,248.721985391521
CA,Santa Ana,92705,33.7789827,-117.7854309,172734,300000,78612,98.5231216766115
CA,Orange,92866,33.7932453,-117.8365359,70957,60350,50530,240.052222050416
CA,Orange,92867,33.807971,-117.8287446,112819,111246,60639,117.485383476526
CA,Orange,92868,33.7812601,-117.8679465,64107,300000,51885,185.692690001062
CA,Garden Grove,92840,33.7825729,-117.892793,0,0,0,0.0
CA,Orange,92865,33.8374004,-117.8540526,92528,86223,59096,115.826100167096
CA,Anaheim,92806,33.829141,-117.8794788,97024,92986,58129,207.551881368813
CA,Anaheim,92805,33.8506272,-117.8977733,77785,300000,46739,218.790233685703
CA,Anaheim,92801,33.8507453,-117.933024,55521,47315,38922,294.858321805943
CA,Anaheim,92804,33.8247012,-117.9977753,68606,300000,49598,341.856320530367
CA,Anaheim,92802,33.7975374,-117.9020092,46049,38814,31521,517.476798165051
CA,Stanton,90680,33.8101182,-117.9975952,70632,47046,59931,530.812586328547
CA,Garden Grove,92845,33.7886489,-118.0049621,76942,300000,50579,328.516803929566
CA,Garden Grove,92841,33.7958279,-117.9631284,75235,67012,60942,210.223256102002
CA,Garden Grove,92843,33.774306,-117.9263206,53832,36354,48968,345.98171465629
CA,Garden Grove,92844,33.7711112,-117.9772251,66778,55347,62206,405.008261192844
CA,Westminster,92683,33.7377201,-117.9503802,54332,43211,45156,394.023171079797
CA,Huntington Beach,92646,33.6833875,-117.9605418,50346,39799,38323,295.722149964612
CA,Fountain Valley,92708,33.7239938,-117.9248182,79520,64245,58740,363.513750058547
CA,Huntington Beach,92647,33.7190957,-118.0153179,65269,65037,43703,352.275914483782
CA,Huntington Beach,92649,33.7096735,-118.0546077,120250,108609,72614,366.50654821631
CA,Los Alamitos,90720,33.7701027,-118.0833104,60849,43461,49372,425.620331207016
CA,Seal Beach,90740,33.7385342,-118.1055682,86246,65316,68537,261.086060938276
CA,Midway City,92655,33.7410637,-117.9853677,74240,59181,56407,452.445092371399
CA,Buena Park,90620,33.8305662,-118.0297412,85543,73636,55575,373.846805189127
CA,Cypress,90630,33.8205123,-118.0500218,166830,300000,73524,69.5594071270156
CA,Buena Park,90621,33.8686559,-117.9934929,57935,52358,41303,338.98244025534
CA,Loomis,95650,38.7673953,-121.1351476,122011,300000,74387,307.247665996738
CA,Granite Bay,95746,38.7326433,-121.2016664,138486,135191,79882,137.545980976592
CA,Roseville,95661,38.7389534,-121.2400729,64770,54581,57787,443.311784531824
CA,Roseville,95747,38.7393452,-121.3164942,74250,59813,53226,324.747946076607
CA,Roseville,95678,38.7837382,-121.2990278,109278,104575,57870,177.81301118558
CA,Rocklin,95677,38.7965217,-121.250877,88083,89894,56268,157.224009082138
CA,Hayward,94544,37.6385141,-122.038842,62415,51352,48589,1142.43116343498
CA,Rocklin,95765,38.827972,-121.2792,120750,300000,65698,410.168910075599
CA,Meadow Vista,95722,38.9814713,-121.0699559,119639,300000,66804,189.086318796897
CA,Playa Vista,90094,33.9665412,-118.4180348,110536,90712,80837,280.351536612483
CA,Lincoln,95648,38.8715573,-121.2830929,61231,52284,44701,548.711302590908
CA,Riverside,92501,34.0052804,-117.3666531,56215,300000,34129,202.059955344205
CA,Riverside,92502,33.9798418,-117.3763659,22310,19305,16429,431.517118970826
CA,Riverside,92507,33.9685095,-117.3545298,58731,61115,40081,127.858586431275
CA,Riverside,92506,33.9390841,-117.3713613,100620,84009,75750,209.118734789486
CA,Riverside,92504,33.9653834,-117.4115762,115154,300000,49694,52.0940730872757
CA,Riverside,92503,33.9399352,-117.4429741,69103,300000,35331,263.82387110512
CA,Jurupa Valley,91752,33.9861154,-117.531606,79762,83091,53484,266.221180148595
CA,Eastvale,92880,33.9608636,-117.5886851,113676,103469,64909,412.841005401151
CA,Riverside,92879,33.8930996,-117.5115316,74692,70565,47237,287.982372761549
CA,Riverside,92505,33.9264796,-117.5082299,52965,39508,46589,436.983212329825
CA,Corona,92882,33.8785017,-117.5888243,27062,22576,19410,461.926326025625
CA,Corona,92881,33.8557384,-117.5449898,51006,45230,39525,486.112385017772
CA,Corona,92883,33.7812173,-117.409206,97615,300000,70864,251.523030803991
CA,Riverside,92508,33.8944124,-117.3019318,113015,108013,64937,578.759152563346
CA,Moreno Valley,92557,33.9438287,-117.2526691,49638,42613,33467,289.759002419673
CA,Moreno Valley,92551,33.883118,-117.2329208,75286,300000,44092,390.149524772101
CA,Moreno Valley,92553,33.919149,-117.2480601,44715,34921,37775,372.624012100903
CA,Moreno Valley,92555,33.9319935,-117.2002245,73411,67699,42562,388.847086619014
CA,Sun City,92586,33.7141447,-117.2157957,45533,38148,28959,809.677665960421
CA,Menifee,92584,33.6865495,-117.2552673,104652,300000,63467,180.590133987887
CA,Perris,92570,33.7488769,-117.2517249,47207,34108,39921,527.547499605383
CA,Lake Elsinore,92530,33.6460838,-117.3105619,43147,300000,26487,430.359224517049
CA,Murrieta,92562,33.5651234,-117.1918935,46707,42017,29570,683.2740878716
CA,Temecula,92591,33.5318881,-117.1188981,105931,300000,55236,181.484495706154
CA,Winchester,92596,33.6119874,-117.0955381,117607,300000,70149,468.96937611978
CA,Temecula,92592,33.4712935,-117.0854882,104791,95612,55626,468.196179747198
CA,Fallbrook,92028,33.4547615,-117.1565563,88703,84004,44859,321.642470806181
CA,Wildomar,92595,33.6015382,-117.2589383,66822,59408,53365,725.260486837763
CA,Hemet,92543,33.751115,-116.9504264,45372,41268,33640,372.357325435081
CA,Hemet,92545,33.7539134,-117.0203384,56766,43112,46765,919.938454259322
CA,San Jacinto,92583,33.7611982,-116.9425027,25807,300000,14028,594.999199946663
CA,Beaumont,92223,33.9837342,-117.0032354,47578,33370,41910,309.322493951701
CA,Banning,92220,33.9266791,-116.8942771,28743,25825,23094,258.855694445323
CA,Anza,92539,33.6096837,-116.7224654,67770,300000,41258,100.062940278795
CA,Thousand Palms,92276,33.8211956,-116.3874271,43007,31615,37935,857.041157757962
CA,Desert Hot Springs,92240,33.9732868,-116.4887516,60723,54676,36277,359.517742407372
CA,Palm Springs,92262,33.8540687,-116.5205082,56726,42809,44909,723.637592594531
CA,Palm Springs,92264,33.812654,-116.5369599,48966,26255,55994,996.066039110993
CA,Cathedral City,92234,33.7942301,-116.449391,94360,73508,73588,368.312815736506
CA,La Quinta,92253,33.6549641,-116.3122385,61407,45566,45915,331.150221963454
CA,Indio,92201,33.7142853,-116.2596224,65839,54225,44994,839.000411855564
CA,Bermuda Dunes,92203,33.7491593,-116.2890686,66894,53490,59475,799.532068801124
CA,Thermal,92274,33.5353408,-116.1440897,75619,50524,67535,605.503170078686
CA,San Lorenzo,94580,37.6691777,-122.1375217,91357,77755,57922,575.394995968441
CA,Coachella,92236,33.662898,-116.1700591,45109,31701,39019,546.98620846181
CA,Blythe,92225,33.6142234,-114.5838963,36039,27831,25499,457.723597795155
CA,Murrieta,92563,33.5490164,-117.1625551,80362,55328,64056,578.443155468705
CA,Sacramento,95819,38.5740594,-121.440758,117240,300000,68046,154.855784435695
CA,Sacramento,95814,38.5834331,-121.4823108,53991,41258,48589,436.942113244216
CA,Sacramento,95818,38.5716422,-121.4870807,45158,29962,44144,643.847774990287
CA,Sacramento,95820,38.5519098,-121.4417291,82563,69823,60028,179.054963069147
CA,Sacramento,95817,38.5429371,-121.4582463,29417,21869,19125,184.530430153796
CA,Sacramento,95824,38.518459,-121.4335116,49996,43411,34539,233.290646029569
CA,Sacramento,95831,38.5121908,-121.5088949,67868,51983,62787,445.701570410072
CA,Sacramento,95822,38.4887495,-121.4990252,45255,36012,38588,447.515459923743
CA,Sacramento,95832,38.4761513,-121.4873526,61611,52741,41388,383.217714895261
CA,Sacramento,95823,38.5025521,-121.4629263,46084,41337,32052,287.022090889063
CA,Sacramento,95828,38.4995505,-121.4190445,55543,300000,34315,338.32468302052
CA,Sacramento,95826,38.4891674,-121.383137,50159,42290,39492,554.782192442701
CA,Sacramento,95864,38.5698188,-121.3915944,158746,300000,81507,102.625905969092
CA,Sacramento,95825,38.5926289,-121.4107461,34884,25841,23890,426.221012250143
CA,Sacramento,95821,38.6029899,-121.3737749,81904,74035,51305,224.312050152716
CA,Carmichael,95608,38.6027461,-121.355268,92640,300000,52944,336.112167621685
CA,Sacramento,95815,38.6225203,-121.4292379,43767,28662,41817,365.246845251731
CA,Sacramento,95838,38.6441696,-121.4385656,24774,13683,22508,279.122891747879
CA,Sacramento,95834,38.6327983,-121.4898006,64676,57103,39285,384.544173363189
CA,Sacramento,95833,38.6086352,-121.5330236,77553,72018,49719,315.082825375365
CA,Sacramento,95835,38.678157,-121.5009859,62760,51270,38543,702.741835654513
CA,Rio Linda,95673,38.6830453,-121.4245886,49023,36915,41588,353.521231082198
CA,North Highlands,95660,38.6869533,-121.3791846,33726,18511,31321,211.217403480313
CA,Sacramento,95843,38.7155123,-121.3347764,88099,79340,54199,303.044459682221
CA,Sacramento,95841,38.668659,-121.3442773,33902,29916,21347,549.315843888693
CA,Fair Oaks,95628,38.656309,-121.3002417,85381,78833,48184,114.190532130022
CA,Citrus Heights,95621,38.7127907,-121.2970596,51458,53549,32209,243.621592460746
CA,Orangevale,95662,38.6894179,-121.2669975,42698,40800,23679,522.419082221967
CA,Citrus Heights,95610,38.6711,-121.2669754,34378,24780,29109,689.521013326102
CA,Folsom,95630,38.7028284,-121.173807,69319,53043,59708,565.071856403114
CA,Gold River,95670,38.6306876,-121.2455336,143292,300000,72358,152.982397743503
CA,Mather,95655,38.5492278,-121.2785982,106418,100588,62423,333.912281641753
CA,Sacramento,95827,38.5548132,-121.3408051,67746,56924,49057,397.342996537728
CA,Elk Grove,95624,38.4166717,-121.3819931,79879,62953,56741,481.007192219455
CA,Sacramento,95829,38.472881,-121.3529406,75713,73611,45744,603.259929586917
CA,Galt,95632,38.2826336,-121.2877759,77828,70105,44171,340.40985998933
CA,Hayward,94540,37.6535732,-122.0944503,69965,61541,52410,688.121384704877
CA,Elk Grove,95758,38.4158537,-121.412217,92016,300000,54696,130.256805195463
CA,Elk Grove,95757,38.4014918,-121.4255366,94290,87588,72519,243.648984663878
CA,Hollister,95023,36.9011737,-121.3587465,96477,300000,54492,156.352620077905
CA,Chino Hills,91709,33.9707113,-117.7041071,59836,46521,46834,569.412028287385
CA,Montclair,91763,34.0801578,-117.6870214,51202,45568,37980,408.217292868016
CA,Montclair,91762,34.063215,-117.6996325,49176,40747,42242,392.652695430368
CA,Upland,91786,34.1124237,-117.6396061,57144,43787,42110,308.019623515284
CA,Ontario,91764,34.0904596,-117.6425122,56072,44939,47650,188.225017667515
CA,Ontario,91761,34.0429009,-117.6469663,50543,43681,40481,412.450230065674
CA,Alta Loma,91701,34.138221,-117.6072895,54436,34071,55710,634.037705528746
CA,Alta Loma,91737,34.1433079,-117.5845688,117092,103805,69168,323.909619908457
CA,Rancho Cucamonga,91730,34.1202031,-117.5626734,103038,85634,64940,317.577906348126
CA,Fontana,92336,34.1251086,-117.4426859,93684,300000,53375,125.789384322709
CA,Fontana,92335,34.0956686,-117.4624252,46656,38447,37658,458.644052719423
CA,Fontana,92337,34.0358616,-117.4928817,74133,69972,43054,112.793434162167
CA,Rialto,92377,34.1650715,-117.4255984,93422,90082,50833,159.153089032792
CA,Rialto,92376,34.1293952,-117.3778763,60545,39118,50660,270.757901273681
CA,Bloomington,92316,34.0813583,-117.392117,66419,57698,40644,280.253399048321
CA,Colton,92324,34.0814165,-117.3615997,50372,48153,32779,535.475221896274
CA,San Bernardino,92407,34.168967,-117.3017356,42267,37245,23785,327.789884952269
CA,San Bernardino,92405,34.1420354,-117.3080732,59918,52725,44157,161.15763943824
CA,San Bernardino,92410,34.100314,-117.3168792,41800,28818,31972,319.689346470323
CA,San Bernardino,92404,34.1445248,-117.281718,41077,22216,52495,340.886966431627
CA,Grand Terrace,92313,34.0256962,-117.3235788,80656,74816,47877,107.09133032898
CA,Loma Linda,92354,34.0226242,-117.2307072,106524,81345,69169,257.641882587553
CA,Redlands,92373,34.0549636,-117.2380005,90112,76843,66851,497.133092563454
CA,Redlands,92374,34.0663357,-117.1852759,39094,24140,35478,183.258899425013
CA,Phelan,92329,34.4425196,-117.6219589,55488,38502,43946,363.286299585046
CA,Victorville,92395,34.5367769,-117.3677478,60290,58216,40540,906.062142103632
CA,Adelanto,92301,34.630638,-117.5205628,36944,17430,34598,189.658957503698
CA,Mt. Baldy,91759,34.266609,-117.5413331,76889,57383,62570,317.551408637653
CA,Apple Valley,92308,34.4477844,-117.2261814,50406,39888,42897,1440.55557218091
CA,Apple Valley,92307,34.5287444,-117.1729656,76380,65595,51429,227.187903503595
CA,Victorville,92394,34.515479,-117.3358999,35645,36561,23939,650.800415788263
CA,Hesperia,92345,34.4359597,-117.3059014,48218,48278,32542,206.991605170204
CA,Lake Arrowhead,92352,34.2700821,-117.3520808,54519,46532,44063,206.322425885486
CA,Big Bear Lake,92315,34.2409525,-116.9467039,68592,56778,71680,81.8929329269625
CA,Lucerne Valley,92356,34.636683,-116.958778,40260,26034,32904,514.577681432882
CA,San Diego,92110,32.7530051,-117.1858954,120050,122111,86339,216.920925978964
CA,San Diego,92103,32.7447827,-117.1623035,96003,88389,59330,171.909313349495
CA,San Diego,92116,32.7580741,-117.1317985,47006,37570,35304,554.45652413521
CA,San Diego,92104,32.74474,-117.1330809,100544,54831,91296,168.560845545485
CA,San Diego,92105,32.7586876,-117.1084657,49044,300000,30826,281.956498976994
CA,San Diego,92115,32.7573492,-117.0947635,52661,28255,47697,179.2232325303
CA,San Diego,92114,32.7174916,-117.0753816,72388,55913,52845,241.256049725985
CA,City Of Industry,91716,34.006504,-117.9561891,72912,61765,49362,299.653280861383
CA,Bonita,91902,32.6571679,-117.0564201,101129,101437,53161,188.881308345434
CA,San Diego,92139,32.6835898,-117.0387603,68716,61311,45799,483.07616301492
CA,La Mesa,91941,32.6945179,-117.020195,58691,300000,28866,326.923278942623
CA,San Diego,92113,32.6978827,-117.0900666,52970,30148,57726,543.779577967113
CA,San Diego,92111,32.7060279,-117.114577,51017,36188,40653,303.650219585882
CA,San Diego,92102,32.7087782,-117.127113,34886,30825,23309,305.724515456809
CA,San Diego,92101,32.7156831,-117.1615102,94463,69051,72950,361.844947806068
CA,San Diego,92106,32.7430417,-117.2219519,104682,300000,86215,175.559047418826
CA,San Diego,92107,32.7408214,-117.252275,90596,92153,58978,187.621971038838
CA,San Diego,92109,32.7883849,-117.2400754,87250,80719,61297,318.328217556087
CA,La Jolla,92037,32.8086093,-117.2628601,92693,75766,67478,112.257706533045
CA,La Jolla,92093,32.8797623,-117.2318177,0,0,0,0.0
CA,Del Mar,92014,32.9516034,-117.2502783,131231,128207,74695,246.446766877696
CA,San Diego,92130,32.9512328,-117.2211586,146610,132606,87079,227.744446834197
CA,San Diego,92129,32.9583944,-117.1357871,138615,118210,72791,137.185100266677
CA,San Diego,92122,32.8626551,-117.2175882,63071,54444,52123,575.957890818282
CA,San Diego,92126,32.9234425,-117.1578602,110703,107278,62915,386.043842678992
CA,San Diego,92121,32.8914562,-117.1716869,138229,300000,64452,73.4568131460206
CA,San Diego,92117,32.8373057,-117.206765,71571,300000,52016,246.724922987978
CA,San Diego,92123,32.7884171,-117.1558879,63019,300000,31258,303.351021517023
CA,San Diego,92124,32.8653405,-117.1173286,60539,54317,43530,319.951114056654
CA,San Diego,92120,32.7867228,-117.091731,87615,300000,47390,100.960784197617
CA,San Diego,92119,32.7864962,-117.0489529,104692,300000,71636,115.329274537382
CA,San Diego,92154,32.5868139,-117.0554451,75715,300000,59845,274.093293016734
CA,San Ysidro,92173,32.5641852,-117.0496293,34270,22299,34482,588.914458437156
CA,Chula Vista,91911,32.5996184,-117.0958327,60694,58676,32817,243.321761738383
CA,Imperial Beach,91932,32.575638,-117.1144635,55057,47571,43419,273.288359829884
CA,Coronado,92118,32.6973819,-117.1785782,109138,300000,75276,220.155749761197
CA,National City,91950,32.6738101,-117.0970458,20849,13276,24971,401.157343252727
CA,Oakland,94612,37.6184511,-122.082604,89482,78171,59021,304.413119692427
CA,Chula Vista,91910,32.6430592,-117.0878962,49188,45291,36619,652.03274883213
CA,Chula Vista,91913,32.6261903,-116.9977853,91409,76183,57739,1092.91074211711
CA,El Cajon,92020,32.758975,-116.9481395,118571,98901,87437,369.532305763621
CA,Lemon Grove,91945,32.7369473,-117.0236857,65711,47127,52997,161.961980758488
CA,El Cajon,92019,32.7752264,-116.9179144,105132,93586,65476,177.45510729642
CA,La Mesa,91944,32.7909112,-116.9381289,56291,39818,46817,452.183486431021
CA,Santee,92071,32.841342,-117.0126279,101589,300000,49222,167.918758172481
CA,El Cajon,92021,32.8701472,-116.8418302,61416,40124,57719,244.055588336881
CA,Lakeside,92040,32.8364013,-116.9197122,67894,60286,43061,387.538517590294
CA,Poway,92064,33.0159951,-117.0682214,54653,35848,52555,551.748418301104
CA,San Diego,92131,32.9046416,-117.1049363,138223,300000,73428,130.656678948949
CA,San Diego,92127,33.008998,-117.1044271,139590,134011,76896,959.986840115293
CA,San Diego,92128,32.9526388,-117.0876596,126815,123029,62527,288.336930351954
CA,Rancho Santa Fe,92067,33.0198637,-117.2118813,109128,83971,75409,144.85634806256
CA,Carlsbad,92009,33.077884,-117.233336,64113,300000,63098,305.195602485608
CA,Solana Beach,92075,33.0018093,-117.2636175,148955,137026,89719,163.819537964665
CA,Cardiff-by-the-sea,92007,33.0221644,-117.2649644,115526,300000,64778,98.4927680999891
CA,Encinitas,92024,33.0812238,-117.2787053,128563,137097,79277,174.356433672251
CA,Oceanside,92054,33.1771014,-117.3611031,61486,52672,51270,359.812622474975
CA,Oceanside,92057,33.2136656,-117.3079977,76108,59651,53589,957.092649588364
CA,Oceanside,92056,33.1879915,-117.3027414,56117,46614,48552,932.258416616838
CA,Oceanside,92058,33.211386,-117.3578942,51216,45576,28745,372.283968214829
CA,Bonsall,92003,33.2857623,-117.1904461,74199,300000,50969,166.992482624072
CA,Pauma Valley,92061,33.3358743,-117.0114507,78807,81325,53503,167.421454767594
CA,Valley Center,92082,33.2532934,-116.9904538,97873,93104,65729,418.735627012278
CA,Vista,92084,33.2241243,-117.2353781,46555,43025,29777,204.393160141137
CA,San Marcos,92069,33.1511693,-117.1773755,85147,65037,61905,121.322228420154
CA,San Marcos,92078,33.1392223,-117.189465,37577,27008,31164,808.106537365921
CA,Escondido,92027,33.1447016,-117.0691907,93177,300000,51821,145.556753059083
CA,Escondido,92029,33.0829737,-117.0871247,138272,133900,65204,101.254750986237
CA,Escondido,92025,33.1189678,-117.0681037,60877,47821,51795,338.59014282972
CA,Temecula,92590,33.0526794,-116.6289158,70597,47218,59818,323.390016259282
CA,Pine Valley,91962,32.7026541,-116.456874,26849,24952,26790,140.725082651306
CA,San Francisco,94133,37.8016201,-122.4156811,98645,82929,77710,435.080144412612
CA,Union City,94587,37.582671,-122.0858114,162134,300000,73181,180.615613805808
CA,San Francisco,94109,37.798037,-122.4205599,120686,105824,84510,439.572233609857
CA,San Francisco,94108,37.7929713,-122.4127333,103341,56013,94813,190.158767056869
CA,San Francisco,94102,37.7870223,-122.412097,35063,21830,34530,596.355279771242
CA,San Francisco,94123,37.8022683,-122.4391509,122229,110331,74461,498.896739389648
CA,San Francisco,94129,37.7887307,-122.4524293,149782,300000,93242,97.5609991456278
CA,San Francisco,94115,37.7879139,-122.4302666,133389,141923,75434,208.448014472697
CA,San Francisco,94117,37.7741958,-122.4477883,127804,300000,78645,180.622143474207
CA,San Francisco,94114,37.7648873,-122.4394973,119299,300000,78740,124.360403813396
CA,San Francisco,94103,37.7794424,-122.4107252,55829,17195,72540,364.935478593794
CA,San Francisco,94107,37.7753304,-122.4022764,124686,120979,92008,201.192495854231
CA,San Francisco,94110,37.7518211,-122.4184134,60022,38568,58147,496.186648035209
CA,San Francisco,94131,37.7450518,-122.4266975,109114,94516,81608,146.684769043375
CA,San Francisco,94124,37.7326749,-122.3958349,116858,92794,80457,87.7607911698459
CA,San Francisco,94112,37.7280629,-122.4372594,103187,83574,84934,156.62365814121
CA,San Francisco,94134,37.731586,-122.4121401,125098,300000,70504,155.62212447588
CA,San Francisco,94122,37.7569413,-122.4692285,111969,109102,73323,224.050325405784
CA,San Francisco,94127,37.7391909,-122.4678657,134649,300000,75047,81.1614411720469
CA,San Francisco,94132,37.7133961,-122.4670977,84239,67378,65291,426.574931902059
CA,San Francisco,94116,37.746019,-122.4804356,82738,60686,69109,268.687155178815
CA,San Francisco,94118,37.7843303,-122.4683869,75731,63551,64992,314.08638096975
CA,San Francisco,94121,37.7880433,-122.4885865,140696,131522,86724,139.187737299372
CA,Stockton,95202,37.9524848,-121.3008145,37864,23333,37316,379.390391304906
CA,Stockton,95203,37.9405169,-121.3145235,56294,44505,43064,377.486883442519
CA,Stockton,95204,37.9761614,-121.3288819,51335,46263,36191,485.878465720239
CA,Stockton,95205,37.9672954,-121.2542261,41350,34300,29619,467.018173004714
CA,Stockton,95206,37.9376415,-121.2438699,42969,28175,34592,265.090493675405
CA,Stockton,95219,38.0093048,-121.3621535,106487,89226,71955,207.286570285944
CA,Stockton,95207,37.9941419,-121.3245319,57881,41178,48413,521.582428031616
CA,Stockton,95209,38.0473283,-121.3368081,68712,300000,48173,345.552654276175
CA,Stockton,95210,38.0349259,-121.3162854,52490,44532,39822,375.181355271916
CA,Livermore,94551,38.0094599,-121.2957942,51011,44424,35481,317.190927597092
CA,Stockton,95212,38.0298609,-121.2450807,89030,83849,68219,111.690043703879
CA,Manteca,95336,37.885527,-121.2688218,52832,37050,49141,270.491687207004
CA,Lodi,95242,38.1663993,-121.3290413,104709,81008,78255,217.554900364059
CA,Lodi,95240,38.1085229,-121.2760564,38878,30917,30666,659.783671764627
CA,Escalon,95320,37.7960045,-120.9929192,55907,300000,43584,502.621680194223
CA,Ripon,95366,37.728534,-121.1609082,110209,98248,64425,246.178401744222
CA,Manteca,95330,37.8447093,-121.3026366,74672,69659,45930,770.388346027641
CA,Tracy,95377,37.7282495,-121.5028399,107099,104691,56790,1060.40556577933
CA,Paso Robles,93447,35.6355612,-120.6911679,82147,76605,54255,232.653448026058
CA,Morro Bay,93442,35.3950312,-120.8585435,45358,34704,35664,484.618148036899
CA,Fremont,94555,37.5823793,-122.039873,125931,300000,73003,533.727105861625
CA,Los Osos,93402,35.3320895,-120.8635035,88737,300000,68409,207.558684335524
CA,San Luis Obispo,93405,35.3228262,-120.7001012,0,0,0,0.0
CA,Pismo Beach,93449,35.1655045,-120.6559422,95542,94742,65939,370.005054144831
CA,Grover Beach,93433,35.1183559,-120.6127502,56701,300000,30561,225.156887030522
CA,Nipomo,93444,35.0336698,-120.479094,71421,67881,44635,357.546648552591
CA,Atascadero,93422,35.4702141,-120.6449778,35139,17700,30483,471.113304875957
CA,Santa Margarita,93453,35.2199638,-119.9980553,84915,74697,61608,213.724827247369
CA,Creston,93432,35.5087571,-120.5564311,80023,74870,49896,472.17152133166
CA,Colma,94015,37.7001141,-122.480253,80059,300000,66198,211.590952160446
CA,South San Francisco,94080,37.6626571,-122.456014,120356,96033,70781,135.98658806121
CA,Pacifica,94044,37.6532841,-122.4918058,102183,101768,54030,311.803328294358
CA,San Bruno,94066,37.6325125,-122.4485092,109822,92724,69383,341.643418327175
CA,Millbrae,94030,37.5995339,-122.3977958,109814,81089,75512,292.712982588352
CA,Burlingame,94010,37.5973795,-122.3682086,145814,300000,88767,119.194047369015
CA,San Mateo,94401,37.572378,-122.3340889,119002,101475,78830,227.885609235452
CA,San Mateo,94402,37.553366,-122.3309033,172551,300000,86100,102.496051975679
CA,San Mateo,94403,37.5342151,-122.311952,156853,300000,73864,41.9615593396717
CA,Foster City,94404,37.55112,-122.2576522,113202,104824,78229,244.275409372429
CA,Belmont,94002,37.5208293,-122.2883303,84787,66378,68811,207.484593701034
CA,San Carlos,94070,37.5077822,-122.2658697,85272,69384,62646,602.718857718187
CA,Redwood City,94065,37.481514,-122.2815925,134970,123591,84874,155.519660771766
CA,Redwood City,94062,37.4844567,-122.2412328,104360,84689,73531,398.842775756495
CA,Redwood City,94063,37.4797379,-122.2236005,54534,43771,36590,449.651419854762
CA,Atherton,94027,37.451725,-122.2251406,119340,106472,73983,152.355781450129
CA,Menlo Park,94025,37.4942796,-122.1505372,62949,43769,51224,350.056932136067
CA,East Palo Alto,94303,37.4590916,-122.1438916,59653,300000,32194,448.953245599314
CA,Portola Valley,94028,37.3697093,-122.2158436,177665,209259,85569,89.2879507609348
CA,Half Moon Bay,94019,37.521199,-122.4709046,134712,300000,70692,174.815941974462
CA,Santa Barbara,93160,34.446327,-119.7788151,66348,300000,83177,240.864593223322
CA,Santa Barbara,93105,34.4348901,-119.7377484,80178,66316,62155,508.471876332207
CA,Santa Barbara,93101,34.434415,-119.7101634,121903,300000,71628,135.62609709659
CA,Santa Barbara,93108,34.4611878,-119.6645571,135037,300000,74994,124.72425518888
CA,Santa Barbara,93103,34.4183039,-119.6773409,44027,34452,31642,305.621886012057
CA,Santa Barbara,93109,34.39838,-119.710835,79615,44899,71793,273.024120171498
CA,Carpinteria,93013,34.3968141,-119.5217962,63928,54000,50107,508.911107469406
CA,Los Alamos,93440,34.7435494,-120.1899733,95071,83543,55853,134.089363863409
CA,Los Olivos,93441,34.70434,-120.0260903,130078,107925,81905,91.7922835118303
CA,Santa Maria,93454,34.9494695,-120.4266148,55073,39511,49537,370.750152186895
CA,Santa Maria,93458,34.9568972,-120.444653,40096,35901,26776,357.088798223665
CA,Guadalupe,93434,34.9194407,-120.5796544,52410,42533,33551,203.693959986429
CA,Goleta,93117,34.4364472,-119.8865161,113967,99361,62135,197.884509686348
CA,Santa Barbara,93110,34.4366709,-119.784079,107792,95018,64200,196.482893377253
CA,San Jose,95112,37.3584848,-121.89276,72253,300000,52352,157.527933921139
CA,San Jose,95126,37.3401522,-121.9220248,84116,56906,71515,313.350680252978
CA,San Jose,95125,37.3303977,-121.8954308,103850,81036,85409,305.009239427383
CA,San Jose,95116,37.3387146,-121.8745424,130621,300000,85431,76.4963218548023
CA,Palo Alto,94301,37.3231636,-121.886425,70345,300000,51692,235.693894115762
CA,San Jose,95128,37.3224433,-121.9330713,74328,54233,66051,488.984647932276
CA,Fremont,94536,37.559196,-121.9915757,112384,99822,71725,812.736593468873
CA,San Jose,95124,37.2837456,-121.9372588,74990,74687,41741,355.804575874204
CA,San Jose,95122,37.3186901,-121.8429997,57368,57248,37078,520.940049331752
CA,San Jose,95111,37.2891255,-121.8392994,98209,300000,60460,49.7975119031414
CA,San Jose,95121,37.3046221,-121.8289144,105715,300000,67665,70.8281668555411
CA,San Jose,95148,37.3184116,-121.801337,81581,62402,57918,600.005638924197
CA,San Jose,95135,37.3090337,-121.7397935,181057,300000,56905,61.4225824208968
CA,San Jose,95138,37.279151,-121.768891,173619,198760,80042,280.707177460336
CA,San Jose,95127,37.3257564,-121.8349807,0,0,0,0.0
CA,San Jose,95132,37.390729,-121.85256,100000,96103,62179,369.438350075346
CA,San Jose,95131,37.3828815,-121.8767483,111494,91237,77155,213.884335737191
CA,Milpitas,95035,37.4260378,-121.8694198,147356,153699,78130,136.851638693835
CA,Sunnyvale,94089,37.4031417,-122.0033891,91316,90728,63771,710.124309200431
CA,San Jose,95110,37.3628317,-121.9239733,43145,33972,23854,24.3319555170345
CA,Santa Clara,95051,37.3606844,-121.9724091,116609,108998,74844,329.980007214243
CA,Santa Clara,95050,37.3430376,-121.9443765,92064,300000,54265,135.190839248047
CA,San Jose,95117,37.3088699,-121.956866,113319,95226,80222,364.040981718562
CA,Campbell,95008,37.3163746,-121.9452294,92339,71866,69648,547.503086471871
CA,San Jose,95130,37.2902052,-121.9687764,82894,69407,59712,237.249763638745
CA,Los Gatos,95032,37.2422217,-121.9563688,126943,98841,82471,244.316073933335
CA,Saratoga,95070,37.2589679,-122.0078933,176740,300000,77969,60.3293866154646
CA,Cupertino,95014,37.3192975,-122.0756805,165140,300000,68913,66.3578428572092
CA,San Jose,95129,37.3026087,-122.02812,132002,142188,82373,263.709077714355
CA,Sunnyvale,94087,37.344829,-122.057125,132427,113437,84832,129.156646146291
CA,Sunnyvale,94086,37.3588473,-122.0098647,123699,112812,74994,344.377516792389
CA,Sunnyvale,94085,37.3914591,-122.0385013,121744,115034,69230,264.375543799197
CA,Mountain View,94043,37.4011891,-122.0743467,100495,97043,62481,248.885658494445
CA,Los Altos,94024,37.358454,-122.0797871,153099,300000,89918,97.5272841825865
CA,Los Altos,94022,37.3913073,-122.1076546,184961,218449,81521,77.8244385271411
CA,Palo Alto,94306,37.41742,-122.1281611,145505,149381,81634,239.81056766842
CA,San Jose,95120,37.2129709,-121.8693742,164648,300000,81566,99.3611030002793
CA,San Jose,95136,37.2707459,-121.8458034,129336,300000,77256,110.059507855447
CA,San Jose,95123,37.2551956,-121.8109259,139824,158396,66055,88.7240921775761
CA,San Jose,95119,37.2389613,-121.7965053,108673,93198,65689,176.021297074887
CA,Morgan Hill,95037,37.0469717,-121.7109545,120341,108328,81153,218.084070163236
CA,Fremont,94538,37.5278226,-121.9615164,90563,82732,67305,633.689878840075
CA,Santa Cruz,95061,36.9536393,-122.0613064,64395,33570,64612,171.358519990606
CA,Freedom,95019,36.928918,-121.7840155,29985,21145,27341,595.918350396004
CA,Soquel,95073,37.043376,-121.9607654,125335,300000,81157,97.8934877471047
CA,Santa Cruz,95065,36.9968265,-121.9775807,72255,300000,43392,158.193861069997
CA,Capitola,95010,36.974907,-121.9654587,87396,65357,71998,82.8933812321625
CA,Redding,96001,40.5747192,-122.4032046,35414,32828,28388,634.913670364804
CA,Shasta,96087,40.5813781,-122.4542402,83754,70582,60631,152.123891832323
CA,Redding,96002,40.5566925,-122.3688469,68310,50401,57863,437.014638813139
CA,Anderson,96007,40.4294831,-122.2988508,57413,43467,39815,195.060573122121
CA,Cottonwood,96022,40.4098262,-122.2369837,62102,64100,38001,213.988366206416
CA,Manton,96059,40.4806114,-121.7401412,51540,46363,32676,394.653190557658
CA,Fall River Mills,96028,40.9204305,-121.4437132,63828,40096,60858,337.281602786619
CA,Montague,96064,41.7987289,-122.2962063,51585,39354,46713,393.388376121669
CA,Yreka,96097,41.6608649,-122.6745712,47362,43058,36915,237.520670269598
CA,Edgewood,96094,41.4800873,-122.427147,53474,46863,36308,322.185790503294
CA,Dunsmuir,96025,41.2135218,-122.3924294,45774,42739,30334,142.259912626423
CA,Vallejo,94591,38.1295441,-122.214182,116061,300000,61188,213.085552843797
CA,Vallejo,94590,38.1293945,-122.3302426,47824,40953,33240,310.622826141
CA,Fairfield,94534,38.1649825,-122.1486859,92882,81707,53814,355.841933325095
CA,Fairfield,94533,38.2769991,-122.0358438,88645,82934,53225,237.749642514141
CA,Bay Point,94565,38.1377528,-121.9771056,115331,300000,62877,146.690124566196
CA,Suisun City,94585,38.2490976,-122.014721,50616,41382,39244,394.553681045263
CA,Travis Afb,94535,38.2790134,-121.9458087,85569,300000,21896,5.06595373622265
CA,Vacaville,95687,38.3401253,-121.9444369,86148,67849,67142,207.886707877436
CA,Dixon,95620,38.4198882,-121.7998024,82020,300000,62604,302.820596117916
CA,Glen Ellen,95442,38.3811988,-122.5375223,115139,87533,81249,252.082808798825
CA,Petaluma,94954,38.2440564,-122.6067891,70238,64460,45197,238.090679194423
CA,Cotati,94931,38.3395569,-122.719615,46420,30718,38909,447.619252951804
CA,Rohnert Park,94928,38.3184479,-122.7072003,71635,57947,52880,261.554800912717
CA,Santa Rosa,95407,38.3933396,-122.7012564,28722,22157,21218,158.79611178846
CA,Santa Rosa,95405,38.4126004,-122.6287915,133826,132861,76494,135.987815605418
CA,Santa Rosa,95404,38.4570299,-122.7128443,72707,68978,47605,206.683642910958
CA,Santa Rosa,95409,38.5261049,-122.6368988,96358,94728,61960,190.216586906404
CA,Santa Rosa,95403,38.5043031,-122.7912912,74903,51561,61062,253.825211888728
CA,Santa Rosa,95401,38.465154,-122.7356928,36396,29644,27902,696.682232960217
CA,Sebastopol,95472,38.4129715,-122.842325,90036,300000,56935,271.952772727298
CA,Monte Rio,95462,38.4759166,-123.0055115,51503,300000,42092,234.12741291401
CA,Forestville,95436,38.468933,-122.898855,88066,64751,71499,268.455130297453
CA,Windsor,95492,38.5525461,-122.8020356,90040,65017,67327,195.690614913003
CA,Healdsburg,95448,38.608098,-122.8145051,82993,74331,57949,230.686993391517
CA,Cloverdale,95425,38.8133955,-123.0170717,65845,48098,59864,169.655958668598
CA,Stewarts Point,95480,38.6070017,-123.3324622,87611,62342,66959,166.826083310541
CA,Knights Ferry,95361,37.7731119,-120.7315696,73534,60401,52073,147.427194852529
CA,Riverbank,95367,37.7365049,-120.9473005,77287,61087,56221,182.122831256348
CA,Modesto,95351,37.7205706,-121.0456799,70989,300000,51662,358.320853120764
CA,Modesto,95350,37.7001655,-121.0036408,61402,51925,46605,372.320616796059
CA,Modesto,95355,37.6600598,-120.9486262,91905,300000,57711,200.320996780843
CA,Modesto,95354,37.6437386,-120.9692464,44315,29604,41536,291.684045657218
CA,Modesto,95357,37.6436041,-120.9345314,47475,39029,37974,460.179200761079
CA,Modesto,95358,37.6062213,-121.0072807,49788,43868,36391,298.090730886308
CA,Ceres,95307,37.5877211,-120.9450461,42619,40052,29838,474.311792770558
CA,Hughson,95326,37.6029399,-120.8727904,74779,56536,61242,364.284405165284
CA,Patterson,95363,37.4647933,-121.1449685,71923,53725,51965,1402.57642304165
CA,Newman,95360,37.313244,-121.0300468,51449,49268,41925,380.253370996964
CA,Denair,95316,37.5227998,-120.7482737,105985,104491,61706,363.970641179758
CA,Turlock,95380,37.4861261,-120.8576989,33853,14444,45876,265.049544480593
CA,Turlock,95381,37.4902919,-120.8326517,65495,47886,55375,226.622429483694
CA,Turlock,95382,37.516714,-120.8607177,47603,32381,45432,421.954164542362
CA,Yuba City,95991,39.1465843,-121.6245659,30583,26630,21888,562.319624077906
CA,Yuba City,95993,39.134305,-121.6664276,90253,300000,67769,155.293934382613
CA,Red Bluff,96080,40.197095,-122.2576791,25582,17193,32098,408.356193333333
CA,Trinity Center,96091,41.0171618,-122.6402253,46578,28082,45273,431.88413617941
CA,Orosi,93647,36.5436858,-119.2875202,46714,45936,27297,338.924379209974
CA,Dinuba,93618,36.5281824,-119.4459533,71310,50813,48835,230.556936590984
CA,Woodlake,93286,36.3946939,-119.0868717,68572,68507,52715,192.088065457443
CA,Ivanhoe,93235,36.4202175,-119.2108517,37270,31094,22590,410.890389928651
CA,Visalia,93291,36.3512901,-119.3547493,37002,25640,26322,323.114637887473
CA,Visalia,93278,36.3331501,-119.3323721,64216,41899,57042,134.12866472549
CA,Exeter,93221,36.285001,-119.1467114,79757,65645,62995,334.085068465441
CA,Visalia,93277,36.3029669,-119.2990913,100208,87021,62522,204.251744620827
CA,Visalia,93279,36.3236766,-119.3406616,49211,300000,35808,229.927200463439
CA,Strathmore,93267,36.1328505,-119.1119527,79255,51332,71180,308.81846417128
CA,Earlimart,93219,35.8580543,-119.3058575,37464,27873,31256,384.056744534359
CA,Ducor,93218,35.8807556,-118.9866017,31274,27222,20176,176.594981520209
CA,Tuolumne,95379,38.2149739,-120.1895292,79388,69408,63708,177.122425980322
CA,Sonora,95370,38.0191545,-120.2986345,78258,65336,56792,343.712104274046
CA,Ojai,93023,34.6431476,-119.1348137,59820,39221,58722,171.620388855419
CA,Fillmore,93016,34.411561,-118.9627618,66371,46924,58945,472.252100924982
CA,Santa Paula,93060,34.3535231,-119.0606093,61559,31303,74172,266.390019351762
CA,Oak View,93022,34.4088418,-119.3376195,56043,38002,43718,170.628215991159
CA,Ventura,93004,34.2996993,-119.1600923,69184,300000,50205,409.884819639506
CA,Ventura,93003,34.268934,-119.2022525,59386,52636,42316,627.74109965094
CA,Ventura,93001,34.2906641,-119.2996148,53899,45353,41086,569.980389190115
CA,Oxnard,93030,34.2260796,-119.2067181,122773,300000,65326,423.567102705422
CA,Oxnard,93036,34.2173083,-119.1684374,87308,73650,60732,611.504385081861
CA,Oxnard,93033,34.1676376,-119.1819133,66776,63336,31704,273.252797211841
CA,Port Hueneme,93041,34.1621779,-119.2067537,53374,50358,41565,272.518185117896
CA,Camarillo,93010,34.2409148,-119.0425597,111631,98525,64861,256.480815482507
CA,Camarillo,93012,34.2200185,-118.9908667,69044,59958,53603,345.882146441692
CA,Newark,94560,37.5425433,-122.045728,95368,87517,59611,756.575165397809
CA,Newbury Park,91320,34.1687001,-118.9463969,82367,61183,57573,113.294711361574
CA,Stevenson Ranch,91381,34.1984588,-118.9295517,168396,300000,73465,227.140679101164
CA,Thousand Oaks,91362,34.2216307,-118.8779656,120366,116686,66697,141.689242911862
CA,Thousand Oaks,91360,34.2106411,-118.876471,125884,300000,66825,69.4953558230305
CA,Oak Park,91377,34.1828499,-118.8055895,137752,139099,87484,272.639498752161
CA,Simi Valley,93065,34.259723,-118.7804557,113504,104198,60656,189.514640188499
CA,Moorpark,93021,34.2815484,-118.8899164,69848,63550,40849,398.1169580034
CA,Simi Valley,93063,34.2776642,-118.7274118,95468,80529,58948,148.187317531693
CA,West Sacramento,95605,38.5922085,-121.5170147,90256,300000,84530,234.026070315601
CA,West Sacramento,95691,38.56077,-121.5694652,33897,300000,20352,501.763438219039
CA,Davis,95616,38.5764495,-121.7588856,73944,62396,62568,490.694678130772
CA,Woodland,95695,38.6884255,-121.7885472,43392,31596,35215,579.751762367825
CA,Winters,95694,38.5786038,-122.0245787,76882,47925,77836,164.75686314232
CA,Esparto,95627,38.830465,-122.1269068,83250,66708,61232,102.291377884673
CA,Marysville,95901,39.158116,-121.5739716,52172,21677,48990,235.858677175887
CA,Olivehurst,95961,39.0999148,-121.5826165,41222,28227,39353,361.322594408834
CA,Beale Afb,95903,39.1253115,-121.3922825,32499,300000,1826,4.0
CA,Challenge,95925,39.4522438,-121.1826541,40214,28155,33449,250.489069706449
CA,Hermosa Beach,90254,33.8575404,-118.3992831,132479,117114,79729,968.256354767948
CA,Pleasanton,94566,37.657232,-121.8874736,101612,84514,79600,982.380531254254
CA,Santa Monica,90404,34.0350094,-118.4754273,103358,94342,70300,781.940719621563
CA,Lake Hughes,93532,34.6789981,-118.3864277,71766,58354,52970,331.680190735926
CA,Livermore,94550,37.6849518,-121.7489971,88461,80464,60139,946.085031247794
CA,Novato,94947,38.0878849,-122.5583773,75733,63399,55785,1167.77773970325
CA,Coulterville,95311,37.6729487,-120.1089266,63827,47871,47421,912.567179812137
CA,Chico,95926,39.7558816,-121.8785043,84979,73616,59231,1360.61659540114
CA,St. Helena,94574,38.5082184,-122.4787754,107845,98374,75612,568.129243227133
CA,Chico,95928,39.7457516,-121.7956007,90507,79537,60431,1094.31283711262
CA,Oakland,94611,37.8260219,-122.2510667,85552,62784,75651,754.955417036004
CA,Magalia,95954,39.960108,-121.5013525,50400,44136,40514,873.500734273076
CA,Dana Point,92629,33.4800988,-117.6965584,99085,86530,65966,630.55634396345
CA,Newport Beach,92660,33.6691905,-117.8609131,94533,86169,71003,1765.01963627272
CA,Gridley,95948,39.3792483,-121.7370059,70597,58009,59665,663.533449364555
CA,Rail Road Flat,95248,38.3647246,-120.449,47840,34282,39589,1182.59595156532
CA,Oakley,94561,37.9993161,-121.732928,66734,52572,50623,1370.41332525556
CA,Weimar,95736,39.0569709,-120.9537177,76672,64910,54292,1490.32949490765
CA,Antioch,94509,38.0053331,-121.7994409,56173,46364,45791,1107.85760446331
CA,Nuevo,92567,33.826142,-117.0844666,75568,71177,46780,491.003587814553
CA,Rancho Mirage,92270,33.7425095,-116.4468886,75123,49530,69803,1109.18654038692
CA,Oakland,94602,37.8120851,-122.2190899,120513,112224,83191,575.763267421013
CA,San Jacinto,92581,33.7741421,-116.880664,76493,62625,60577,793.300972684633
CA,Pleasant Hill,94523,37.9514803,-122.0605997,86662,71177,61994,1068.68804232109
CA,Concord,94521,37.9598407,-121.9580852,95624,87928,60703,591.89337337739
CA,Sacramento,95842,38.6811015,-121.3538791,56777,50638,40070,971.324986073572
CA,Paicines,95043,36.5800916,-121.0009504,87929,72517,65937,445.676736880016
CA,Walnut Creek,94598,37.9067555,-122.0145836,144189,148636,81549,623.912741645256
CA,San Ramon,94583,37.7449859,-121.9480394,125026,300000,67685,408.439082538453
CA,Lafayette,94549,37.8896913,-122.1040703,118775,108755,86003,779.251080580424
CA,Yucca Valley,92284,34.1517898,-116.4313005,45030,31620,40694,1954.85930061817
CA,Forest Falls,92339,34.1438202,-116.8683764,75910,51968,69604,406.279090750303
CA,Orinda,94563,37.8566708,-122.1812338,157463,162529,82967,313.801941515336
CA,Danville,94506,37.8065479,-121.9040691,154342,154994,79948,412.159110468058
CA,Crockett,94525,38.0244713,-122.2276055,89975,80487,54771,576.536657767266
CA,Hercules,94547,37.9995137,-122.265433,118272,300000,66591,524.766667124996
CA,San Pablo,94806,37.9761393,-122.345945,61919,55193,43982,733.329076424872
CA,Richmond,94804,37.9485162,-122.3399466,60355,47201,42030,1479.95904218727
CA,El Cerrito,94530,37.9139391,-122.2934783,118857,111900,69705,306.111161268325
CA,Crescent City,95331,41.7804545,-124.2396505,58992,53293,43872,1525.126059204
CA,Stockton,95213,38.0063695,-121.3236839,42909,30573,42152,1129.19222779598
CA,Lockeford,95237,38.228354,-121.0980636,89853,74649,64869,565.199726344639
CA,San Jose,95118,37.2565073,-121.8874617,94088,84336,66373,858.478069733062
CA,San Jose,95133,37.3759252,-121.8448909,81881,73944,54489,777.08706396092
CA,Alviso,95002,37.4495304,-121.9940964,87293,76559,62990,288.18403766093
CA,Guerneville,95446,38.533659,-123.0092064,61728,42655,58596,1022.6322855067
CA,Live Oak,95953,39.241136,-121.6942945,65852,50374,58937,1010.08795279484
CA,Yettem,93670,36.4957832,-119.259301,40535,31976,38221,1227.05927920903
CA,Tipton,93272,36.056592,-119.3368879,39623,31194,33621,1353.02929589309
CA,Oakland,94601,37.7710407,-122.2067479,51095,40160,39921,763.930795856287
CA,Woodland,95776,38.6699453,-121.737812,95498,85102,61694,1041.37292292256
CA,Oakland,94618,37.8481386,-122.2495968,156951,145498,75999,95.8889609422513
CA,Oakland,94609,37.8485412,-122.2647277,83433,79518,50186,127.458794553902
CA,Oakland,94608,37.8207562,-122.2733875,35274,20114,35200,623.043896969602
CA,Oakland,94610,37.811425,-122.2322365,173677,195953,81176,67.5591887593424
CA,Oakland,94619,37.7978944,-122.1949575,142270,144163,64428,56.9253484293321
CA,Oakland,94605,37.7853987,-122.1572109,97430,90261,58720,123.923514341104
CA,Oakland,94603,37.729083,-122.1778389,53079,43375,39616,218.491028840398
CA,Oakland,94621,37.7504463,-122.1837659,45328,38771,32818,213.787938248626
CA,Albany,94706,37.8906499,-122.3181164,98633,300000,50866,122.825357205696
CA,Berkeley,94702,37.8728828,-122.2878171,71614,46329,58399,368.079514222204
CA,Berkeley,94709,37.877313,-122.2603183,56150,35427,60221,448.56998533223
CA,Berkeley,94705,37.8588898,-122.258719,87835,71873,68499,315.120104985736
CA,Alameda,94502,37.7344929,-122.2414385,99109,89473,70818,333.680308762059
CA,San Leandro,94578,37.721228,-122.123812,145285,300000,78784,62.9290603403086
CA,Hayward,94541,37.6746689,-122.1022655,56184,43657,47321,713.498944773619
CA,Hayward,94545,37.6298655,-122.1002746,86101,300000,45055,148.456385927609
CA,Laton,93242,36.4550587,-119.7117335,50949,30941,51919,757.045325272853
CA,San Joaquin,93660,36.5557769,-120.234647,36488,29920,31828,1365.34346646267
CA,Fremont,94539,37.5345631,-121.9421705,126224,110138,82111,164.852734501119
CA,Willows,95988,39.5223178,-122.2104733,59532,40422,52386,1718.85740794998
CA,Pleasanton,94588,37.6533468,-121.9307805,151325,146243,81096,253.041607520103
CA,Chico,95927,39.7638565,-121.849496,50847,32615,41724,230.826441272924
CA,Chico,95973,39.7860101,-121.9334044,125693,300000,78110,142.789767600832
CA,Paradise,95969,39.7817769,-121.6098624,80503,59063,57994,221.28958905007
CA,Berry Creek,95916,39.6655389,-121.3519555,52817,37075,46973,485.523560421309
CA,Redway,95560,40.1578711,-123.9644524,50177,39231,42417,985.269320687293
CA,Palermo,95968,39.429744,-121.5309393,44454,38540,33736,467.355361386407
CA,Valley Springs,95252,38.1937624,-120.8759284,93225,89426,59167,315.077315630181
CA,Williams,95987,39.1051265,-122.2830028,110458,300000,80342,84.5952624212002
CA,Princeton,95970,39.3131684,-121.9711945,64022,43535,52400,159.496295830628
CA,Byron,94514,37.8582825,-121.6219157,86367,72794,60083,227.720826960674
CA,Concord,94519,37.9762383,-122.01218,68231,300000,52766,228.559564595591
CA,Concord,94518,37.9402165,-122.0080941,173040,300000,76314,73.12466467749
CA,Walnut Creek,94597,37.9190883,-122.0467663,128326,126675,61370,183.314361776151
CA,Danville,94526,37.7992823,-121.9650943,165658,300000,81690,225.511536931815
CA,Moraga,94556,37.879801,-122.1364828,171929,189167,76402,111.75370686617
CA,Rodeo,94572,38.0481856,-122.2538488,63297,51667,51594,333.519565633336
CA,Richmond,94805,37.9403079,-122.3299515,84713,79206,48228,154.217996879804
CO,Gold Hill,80302,40.063653,-105.369587,149502,300000,41656,9.59831196287852
CO,Timnath,80547,40.526034,-104.959373,98874,300000,67457,183.45892187475
CO,Vail,81657,39.637527,-106.364526,86272,68860,66772,1169.77377703413
CO,Walsh,81090,37.386107,-102.279933,47555,34309,49482,186.822621733682
CO,Westminster,80021,39.88219,-105.064426,85644,74974,54256,7695.42795454979
CO,Edwards,81632,39.70364,-106.679287,0,0,0,0.0
CO,Fairplay,80440,39.286135,-106.066293,49817,42948,36429,99.6632045111309
CO,Arvada,80005,39.833728,-105.150306,83127,69340,60244,21309.1499953641
CO,Jamestown,80455,40.117803,-105.440718,129356,300000,27138,14.6975879155166
CO,Bethune,80805,39.303822,-102.423414,43753,40224,25512,74.1642076607096
CO,Avondale,81022,38.250445,-104.260792,33480,23969,26784,106.398427050932
CO,Canon City,81212,38.413543,-105.19106,60240,300000,44295,58.9987117096298
CO,Carbondale,81623,39.394616,-107.214475,74969,62160,52431,1230.96472500379
CO,Center,81125,37.751351,-106.110195,10946,6808,8591,83.3234666666667
CO,Creede,81130,37.848785,-106.925288,44307,31143,39395,85.4654766046845
CO,Colorado City,81019,37.936651,-104.845601,67766,54286,54960,493.644137192397
CO,Cotopaxi,81223,38.372806,-105.68552,37500,300000,1826,7.0
CO,Littleton,80127,39.619427,-105.135692,94774,87020,55101,4822.8745788531
CO,Dolores,81323,37.47399,-108.499824,50063,34138,47923,303.718082295281
CO,Yuma,80759,40.112467,-102.488545,57309,37453,51422,69.7314510493146
CO,Georgetown,80444,39.75971,-105.682813,58245,40442,50347,102.996494774403
CO,Firestone,80504,40.156146,-104.948766,91927,83544,51869,1466.0666031826
CO,Fort Morgan,80701,40.254932,-103.790968,53923,44997,37663,2662.20024616714
CO,Colorado Springs,80921,39.039942,-104.825176,113743,105184,69854,819.932049369026
CO,Greeley,80634,40.415278,-104.769743,60804,48659,49391,20686.8278191167
CO,Mc Clave,81057,38.106555,-102.956167,47822,45067,32852,33.0322090761027
CO,Denver,80222,39.667776,-104.921728,117162,109574,68528,345.308501513069
CO,Indian Hills,80454,39.668928,-105.243191,69800,300000,20034,53.8627588493067
CO,Loveland,80537,40.384683,-104.967903,114030,300000,66239,141.92252213847
CO,Kit Carson,80825,38.762823,-102.795366,47895,42616,37787,58.6307085740073
CO,Lakewood,80226,39.698942,-105.117551,70376,56870,54787,35528.3930947576
CO,Cortez,81321,37.501715,-108.660059,63030,300000,55926,103.498172115585
CO,Minturn,81645,39.914382,-106.725723,128472,300000,17730,1.99967998719949
CO,Englewood,80122,39.538797,-104.847473,90612,73931,63846,741.687003619102
CO,Niwot,80503,40.097552,-105.15828,115029,106980,76975,650.960073168396
CO,Oak Creek,80467,40.273811,-106.957374,50507,39941,37020,261.5236720745
CO,Ovid,80744,40.960564,-102.388352,40647,25713,40276,86.4956872039042
CO,Kremmling,80459,40.055562,-106.175995,50812,300000,7530,22.4990499049905
CO,Gunnison,81230,38.608612,-106.516466,66372,54351,46488,18.9313728392821
CO,New Raymer,80742,40.607952,-103.843374,56190,300000,44062,20.9992652804312
CO,Florence,81226,38.364713,-105.164779,43093,36749,30957,139.796549620276
CO,Salida,81201,38.530283,-105.99878,55052,40649,44974,1703.40846217867
CO,Seibert,80834,39.297967,-102.869524,36255,24551,31319,67.8298854758969
CO,Silverthorne,80498,39.654012,-106.092443,89735,61792,78125,732.166431157762
CO,Steamboat Springs,80487,40.475585,-106.822936,75766,55645,65359,2778.90957675871
CO,Bennett,80102,39.869555,-104.5174306,76902,61436,57778,816.72065140479
CO,Alamosa,81101,37.4773802,-105.8516249,52195,42389,53360,1723.11082861324
CO,Grand Junction,81501,39.0715582,-108.5670101,43707,30506,39588,484.205042484552
CO,Grand Junction,81504,39.0927327,-108.5058955,53352,44533,42224,2260.34205773316
CO,Craig,81625,40.5226692,-107.5647826,54842,40089,47361,1008.7830589134
CO,Nucla,81424,38.2906092,-108.6270409,54152,42564,44189,686.038045537201
CO,Weldona,80653,40.4103163,-103.8140035,78180,73024,53991,531.208239054729
CO,Rocky Ford,81067,38.0232043,-103.7346086,56690,43850,40799,777.10505892762
CO,Guffey,80820,38.8812413,-105.6157563,53579,37069,43860,816.668857209693
CO,Holly,81047,37.9612677,-102.1449177,48662,40047,38483,361.419583560884
CO,Pueblo,81001,38.3084072,-104.5776867,19788,300000,8349,10.0
CO,Littleton,80123,39.6184954,-105.0420335,97544,78297,67117,727.219602318932
CO,Pueblo,81004,38.2557902,-104.6381775,44017,35858,34344,763.839898560833
CO,Pueblo,81005,38.2226969,-104.6592836,43840,36897,38036,1600.2175641782
CO,Pueblo West,81007,38.3223401,-104.7154064,62241,59814,36129,396.084800707198
CO,Pueblo,81006,38.2410845,-104.5487987,65925,59272,47819,482.67101001115
CO,Del Norte,81132,37.6748567,-106.3741199,35858,27290,30940,633.120332249476
CO,Saguache,81149,38.1324118,-106.2972506,44309,32893,38931,1221.28243947925
CO,Frisco,80443,39.5563918,-106.1702437,76103,64867,52017,744.631355195152
CO,Akron,80720,40.1924453,-103.2647949,54593,46232,40354,758.308292702748
CO,Greeley,80631,40.403048,-104.661334,47427,43287,32558,1331.92770217608
CO,Highlands Ranch,80124,39.5709676,-104.9328223,152515,147258,74257,195.913783990879
CO,Platteville,80651,40.2047346,-104.7452989,73924,60156,59862,864.224606762499
CO,Erie,80516,40.0076218,-105.0229172,114046,104075,64531,559.452213241961
CO,Windsor,80550,40.4727644,-104.923252,82038,70375,54769,703.29841266933
CO,Aurora,80010,39.7419967,-104.8752239,36004,23387,33894,434.851861639764
CO,Aurora,80011,39.7580208,-104.8145883,48432,39207,30577,425.956630276114
CO,Northglenn,80233,39.9053744,-104.9847524,40161,30972,32200,538.917972787708
CO,Englewood,80113,39.65589,-104.9794296,46845,37318,44293,1720.83473900062
CO,Thornton,80241,39.9411441,-104.9316157,122174,300000,60547,97.0886593080628
CO,Thornton,80602,39.9394959,-104.8910262,106517,98186,52136,703.762100259824
CO,Brighton,80605,39.917819,-104.9123325,89675,300000,46847,352.606842637495
CO,Brighton,80601,39.979622,-104.8052914,51962,44974,36455,471.654250330519
CO,Commerce City,80022,39.8235849,-104.9078211,54084,51502,38369,426.977926586557
CO,Thornton,80229,39.8435802,-104.9708359,86664,300000,42500,176.322289183671
CO,Littleton,80120,39.5965407,-104.996668,72508,64027,58606,754.663244085588
CO,Denver,80221,39.8311684,-104.9941282,57126,61590,39298,149.323879460956
CO,Thornton,80260,39.8677408,-105.0099712,57419,57049,38524,391.841898692849
CO,Westminster,80031,39.8524822,-105.0141129,40906,39519,26789,415.61438568602
CO,Northglenn,80234,39.8986779,-104.9931394,49409,40829,40392,280.95738472427
CO,Westminster,80030,39.84742,-105.0377226,69880,66529,41797,274.386376164775
CO,Centennial,80111,39.5990628,-104.900186,75889,67966,49663,339.715444989658
CO,Mosca,81146,37.5917311,-105.7534696,46783,35802,36750,174.827869807343
CO,Denver,80236,39.6477568,-105.0229576,48856,47816,30538,291.854454082363
CO,Littleton,80121,39.6167999,-104.9727279,65596,52192,53560,547.274839825036
CO,Aurora,80018,39.6862598,-104.7168189,94557,85592,55241,605.757234061177
CO,Englewood,80110,39.6467022,-105.0000158,61849,46429,49532,325.450199251695
CO,Centennial,80112,39.5873185,-104.8924857,135146,300000,78281,102.758388293811
CO,Aurora,80014,39.6749395,-104.8564218,77044,59707,60189,218.383464546723
CO,Aurora,80012,39.6785048,-104.838073,51612,42668,47959,388.151687974976
CO,Aurora,80013,39.6589153,-104.8126127,69642,300000,30435,191.388359938886
CO,Aurora,80017,39.6911552,-104.8004672,55478,46198,45943,624.046325276863
CO,Aurora,80015,39.6461216,-104.8243569,70671,59515,52459,497.872496691998
CO,Aurora,80116,39.6027262,-104.8024291,132922,117803,77177,167.78264762622
CO,Aurora,80016,39.576491,-104.7247927,83118,73564,63283,642.795802630828
CO,Denver,80231,39.6910917,-104.8706145,60245,48594,39268,475.715056393314
CO,Pagosa Springs,81147,37.2858561,-107.1938599,69136,43026,66416,309.855312289436
CO,Las Animas,81054,37.9318907,-103.0775841,38049,24243,48044,211.461402586857
CO,Boulder,80304,40.0299035,-105.2706095,119826,300000,76603,111.627780244701
CO,Boulder,80303,40.027135,-105.2390499,74534,57456,61481,294.709450200819
CO,Boulder,80305,39.9761681,-105.2348888,86093,63905,76506,164.924878029311
CO,Boulder,80301,40.0843167,-105.2470418,143358,300000,70532,59.4287292098771
CO,Louisville,80027,40.0013758,-105.151378,97424,300000,48555,50.4615448353485
CO,Longmont,80501,40.2307503,-105.1083,89326,73955,63803,304.115977153321
CO,Lyons,80540,40.2147253,-105.2620949,111546,96888,77402,267.017306813174
CO,Nederland,80466,39.9810221,-105.4913838,104254,88295,65467,256.015754900598
CO,Broomfield,80020,39.9360825,-105.0665047,91972,300000,52615,182.25471025172
CO,Buena Vista,81211,38.973349,-106.3813412,53587,49603,36909,449.003638478024
CO,San Luis,81152,37.1383747,-105.4626729,33165,24693,28067,195.425940561952
CO,Paonia,81428,38.9800317,-107.6060539,62123,43979,58289,218.594297363213
CO,Cedaredge,81413,38.9757405,-107.8990733,47248,37122,51215,297.857783215683
CO,Denver,80205,39.780023,-105.0120683,56376,55451,41074,379.610447582439
CO,Denver,80212,39.7639304,-105.0462665,73822,300000,63106,144.894435016079
CO,Denver,80211,39.7729368,-105.0182645,84756,300000,53967,159.427240199503
CO,Edgewater,80214,39.7524826,-105.0501134,103888,91839,67667,200.685982810544
CO,Denver,80204,39.739431,-105.0461517,61961,55404,42427,205.457853491166
CO,Denver,80219,39.7185409,-105.0464605,49044,39939,39230,269.453098906141
CO,Denver,80223,39.7048065,-105.0186498,74861,60952,60779,130.324432171308
CO,Denver,80218,39.7360351,-104.9836454,37060,32114,37504,725.898936213224
CO,Denver,80203,39.7154033,-104.9770642,60959,44224,40042,347.185680075428
CO,Denver,80210,39.6866128,-104.9810561,102762,99696,74017,227.719124333326
CO,Denver,80206,39.7291072,-104.9507867,101056,300000,62822,102.327196812405
CO,Denver,80216,39.7825208,-104.9574846,44560,43411,27791,361.95916600014
CO,Denver,80237,39.6475798,-104.9218671,100000,75474,71895,372.978520841634
CO,Denver,80207,39.7730298,-104.912735,59447,44424,48588,203.493147477189
CO,Denver,80220,39.7455935,-104.9314404,79993,53367,72783,234.190226415517
CO,Lakewood,80232,39.7005623,-105.0458901,51950,45429,40423,314.884163813376
CO,Denver,80239,39.7857354,-104.8384214,50564,42905,33306,290.82354287448
CO,Denver,80227,39.6594062,-105.0616172,102153,300000,49426,246.64563851309
CO,Parker,80138,39.4915792,-104.7580266,58810,300000,38549,248.625263768799
CO,Parker,80134,39.5040809,-104.7958216,134490,123851,61741,269.236117712658
CO,Highlands Ranch,80126,39.560741,-104.9727362,130682,126429,61915,163.180644620099
CO,Highlands Ranch,80130,39.5498409,-104.9187822,110561,300000,54431,219.016136177807
CO,Littleton,80125,39.4525273,-105.0828344,104201,300000,52670,263.141937237923
CO,Castle Rock,80109,39.4112636,-104.9048678,115707,108418,59388,201.648762461048
CO,Castle Rock,80104,39.3681732,-104.8422633,96326,82953,59138,181.055432353606
CO,Basalt,81621,39.4178684,-107.0018334,98517,79677,69286,221.74917331236
CO,Avon,81620,39.5834849,-106.480417,104590,101383,68128,206.721806185431
CO,Elizabeth,80107,39.4125733,-104.6348172,87982,81199,57082,294.409002973887
CO,Colorado Springs,80909,38.8638068,-104.7671221,72051,67343,43870,263.651920304751
CO,Colorado Springs,80907,38.8798052,-104.8031544,57896,44731,41347,366.386228760687
CO,Colorado Springs,80904,38.8483933,-104.8632762,42737,26775,39457,329.548427780911
CO,Colorado Springs,80903,38.8444894,-104.8237983,36222,23601,37533,543.119288290515
CO,Colorado Springs,80906,38.8127184,-104.8497263,57270,43545,50294,230.924979575762
CO,Palmer Lake,80133,39.044646,-104.9512322,105159,300000,67646,266.817437452871
CO,Colorado Springs,80919,38.9213335,-104.8791433,123691,300000,55155,65.2931559645388
CO,Usaf Academy,80840,38.9773835,-104.8672033,77242,69810,43905,163.422549663762
CO,Colorado Springs,80920,38.9517583,-104.7845307,87183,300000,43683,266.545090556393
CO,Colorado Springs,80911,38.7628144,-104.747049,46144,36976,47381,280.554378413905
CO,Colorado Springs,80902,38.7427021,-104.7736288,69749,300000,5981,3.33288885925728
CO,Fountain,80817,38.7034125,-104.7123862,68145,57450,52229,583.234597140692
CO,Yoder,80864,38.7105177,-104.2840142,64641,50244,47702,391.683089195717
CO,Colorado Springs,80918,38.9205831,-104.7634455,84436,87067,58869,99.8247044595745
CO,Colorado Springs,80915,38.8509467,-104.710936,60589,49769,39049,406.219222943071
CO,Colorado Springs,80922,38.8775704,-104.7004487,90146,300000,40538,480.963304537481
CO,Lafayette,80026,39.9687243,-105.0817956,57170,44890,42114,1924.66966103812
CO,Colorado Springs,80910,38.8022313,-104.7640557,46711,29483,48279,432.247404164815
CO,Colorado Springs,80917,38.8924348,-104.72984,77760,74343,47504,297.817649833411
CO,Colorado Springs,80916,38.8191714,-104.7501605,52385,45810,36806,1029.06533213954
CO,Monument,80132,39.1043303,-104.8163477,137560,300000,65916,262.707881856598
CO,Colorado Springs,80908,39.0341474,-104.6531592,87497,84238,61203,253.580470227912
CO,Yampa,80483,39.9574947,-107.1910632,101933,300000,56126,123.489632585741
CO,New Castle,81647,39.6601966,-107.5101472,82743,75506,50304,529.201220711
CO,Loma,81524,39.4805592,-108.5961659,77181,76289,50529,338.873576636106
CO,Granby,80446,40.2054694,-105.8405228,75751,78168,43745,308.679420502356
CO,Crested Butte,81224,38.8797219,-106.9332076,64533,48387,52454,283.022937104482
CO,Walsenburg,81089,37.6521532,-104.76524,33439,30262,27783,381.725626548257
CO,Golden,80403,39.8270131,-105.3192732,66188,51113,49350,503.412354835794
CO,Arvada,80003,39.8593908,-105.0666447,57036,49434,30768,353.987759366357
CO,Arvada,80004,39.8201265,-105.1584177,112562,105812,58970,103.622647524242
CO,Evergreen,80439,39.6727134,-105.3508621,71634,56739,57530,286.719265712029
CO,Golden,80401,39.7299829,-105.2977353,138093,120117,78878,115.818421989233
CO,Wheat Ridge,80033,39.7789876,-105.1152296,58005,48988,32743,250.95759042386
CO,Lakewood,80215,39.74753,-105.0954641,46646,41944,36221,168.023659485753
CO,Lakewood,80228,39.6936351,-105.1213495,52046,45081,32959,325.989704813994
CO,Morrison,80465,39.6491238,-105.1474972,57771,50309,35875,444.015512267402
CO,Denver,80235,39.6493402,-105.0739987,61267,300000,41215,354.255900667204
CO,Conifer,80433,39.5316599,-105.2372056,123998,300000,61447,112.557759656023
CO,Pine,80470,39.5079567,-105.3741535,101827,89427,57746,263.748113647516
